rosbagTimestamp,stamp,secs,nsecs,mot_data_array,-,sample_period,pwm,encoder_delta,ticks_per_rev,angular_speed,-,sample_period,pwm,encoder_delta,ticks_per_rev,angular_speed,-,sample_period,pwm,encoder_delta,ticks_per_rev,angular_speed,-,sample_period,pwm,encoder_delta,ticks_per_rev,angular_speed
1682445515466161224,,1682445515,465702121,,0.0,0,0,2803.2,0.0,0.0,0,0,2803.2,0.0,0.0,0,0,2803.2,0.0,0.0,0,0,2803.2,0.0
1682445515486496194,,1682445515,486207588,,0.02002,0,0,2803.2,0.0,0.02002,0,0,2803.2,0.0,0.02002,0,0,2803.2,0.0,0.02002,0,0,2803.2,0.0
1682445515506969440,,1682445515,506690889,,0.02002,0,0,2803.2,0.0,0.02002,0,0,2803.2,0.0,0.02002,0,0,2803.2,0.0,0.02002,0,0,2803.2,0.0
1682445515527529943,,1682445515,527240374,,0.020004,0,0,2803.2,0.0,0.020004,0,0,2803.2,0.0,0.020004,0,0,2803.2,0.0,0.020004,0,0,2803.2,0.0
1682445515548021447,,1682445515,547728971,,0.02002,0,0,2803.2,0.0,0.02002,0,0,2803.2,0.0,0.02002,0,0,2803.2,0.0,0.02002,0,0,2803.2,0.0
1682445515564344100,,1682445515,563929941,,0.020016,0,0,2803.2,0.0,0.020016,0,0,2803.2,0.0,0.020016,0,0,2803.2,0.0,0.020016,0,0,2803.2,0.0
1682445515585398168,,1682445515,584993250,,0.020004,0,0,2803.2,0.0,0.020004,0,0,2803.2,0.0,0.020004,0,0,2803.2,0.0,0.020004,0,0,2803.2,0.0
1682445515605139371,,1682445515,604863024,,0.02002,0,0,2803.2,0.0,0.02002,0,0,2803.2,0.0,0.02002,0,0,2803.2,0.0,0.02002,0,0,2803.2,0.0
1682445515625672375,,1682445515,625389121,,0.02002,0,0,2803.2,0.0,0.02002,0,0,2803.2,0.0,0.02002,0,0,2803.2,0.0,0.02002,0,0,2803.2,0.0
1682445515646173472,,1682445515,645902291,,0.020016,0,0,2803.2,0.0,0.020016,0,0,2803.2,0.0,0.020016,0,0,2803.2,0.0,0.020016,0,0,2803.2,0.0
1682445515666708160,,1682445515,666432165,,0.02002,0,0,2803.2,0.0,0.02002,0,0,2803.2,0.0,0.02002,0,0,2803.2,0.0,0.02002,0,0,2803.2,0.0
1682445515687699674,,1682445515,687054723,,0.020004,0,0,2803.2,0.0,0.020004,0,0,2803.2,0.0,0.020004,0,0,2803.2,0.0,0.020004,0,0,2803.2,0.0
1682445515708118180,,1682445515,707592782,,0.020016,0,0,2803.2,0.0,0.020016,0,0,2803.2,0.0,0.020016,0,0,2803.2,0.0,0.020016,0,0,2803.2,0.0
1682445515728675757,,1682445515,728080175,,0.02002,0,0,2803.2,0.0,0.02002,0,0,2803.2,0.0,0.02002,0,0,2803.2,0.0,0.02002,0,0,2803.2,0.0
1682445515744632454,,1682445515,744133981,,0.02002,0,0,2803.2,0.0,0.02002,0,0,2803.2,0.0,0.02002,0,0,2803.2,0.0,0.02002,0,0,2803.2,0.0
1682445515765203956,,1682445515,764684466,,0.020024,0,0,2803.2,0.0,0.020024,0,0,2803.2,0.0,0.020024,0,0,2803.2,0.0,0.020024,0,0,2803.2,0.0
1682445515785755774,,1682445515,785212673,,0.020036,0,0,2803.2,0.0,0.020036,0,0,2803.2,0.0,0.020036,0,0,2803.2,0.0,0.020036,0,0,2803.2,0.0
1682445515806242816,,1682445515,805728899,,0.02002,0,0,2803.2,0.0,0.02002,0,0,2803.2,0.0,0.02002,0,0,2803.2,0.0,0.02002,0,0,2803.2,0.0
1682445515826676747,,1682445515,826193460,,0.020024,0,0,2803.2,0.0,0.020024,0,0,2803.2,0.0,0.020024,0,0,2803.2,0.0,0.020024,0,0,2803.2,0.0
1682445515847165918,,1682445515,846717908,,0.020036,0,0,2803.2,0.0,0.020036,0,0,2803.2,0.0,0.020036,0,0,2803.2,0.0,0.020036,0,0,2803.2,0.0
1682445515867795957,,1682445515,867235004,,0.020004,0,0,2803.2,0.0,0.020004,0,0,2803.2,0.0,0.020004,0,0,2803.2,0.0,0.020004,0,0,2803.2,0.0
1682445515888174945,,1682445515,887718935,,0.02002,0,0,2803.2,0.0,0.02002,0,0,2803.2,0.0,0.02002,0,0,2803.2,0.0,0.02002,0,0,2803.2,0.0
1682445515908578729,,1682445515,908160292,,0.020016,0,0,2803.2,0.0,0.020016,0,0,2803.2,0.0,0.020016,0,0,2803.2,0.0,0.020016,0,0,2803.2,0.0
1682445515924838272,,1682445515,924368261,,0.020024,0,0,2803.2,0.0,0.020024,0,0,2803.2,0.0,0.020024,0,0,2803.2,0.0,0.020024,0,0,2803.2,0.0
1682445515945363849,,1682445515,944862581,,0.020016,0,0,2803.2,0.0,0.020016,0,0,2803.2,0.0,0.020016,0,0,2803.2,0.0,0.020016,0,0,2803.2,0.0
1682445515965813873,,1682445515,965376677,,0.02002,0,0,2803.2,0.0,0.02002,0,0,2803.2,0.0,0.02002,0,0,2803.2,0.0,0.02002,0,0,2803.2,0.0
1682445515986367098,,1682445515,985904236,,0.020024,0,0,2803.2,0.0,0.020024,0,0,2803.2,0.0,0.020024,0,0,2803.2,0.0,0.020024,0,0,2803.2,0.0
1682445516006905620,,1682445516,6427073,,0.020036,0,0,2803.2,0.0,0.020036,0,0,2803.2,0.0,0.020036,0,0,2803.2,0.0,0.020036,0,0,2803.2,0.0
1682445516027473253,,1682445516,26996336,,0.020004,0,0,2803.2,0.0,0.020004,0,0,2803.2,0.0,0.020004,0,0,2803.2,0.0,0.020004,0,0,2803.2,0.0
1682445516047976257,,1682445516,47465137,,0.02002,0,0,2803.2,0.0,0.02002,0,0,2803.2,0.0,0.02002,0,0,2803.2,0.0,0.02002,0,0,2803.2,0.0
1682445516068508761,,1682445516,68023862,,0.02002,0,0,2803.2,0.0,0.02002,0,0,2803.2,0.0,0.02002,0,0,2803.2,0.0,0.02002,0,0,2803.2,0.0
1682445516088889508,,1682445516,88403479,,0.020036,0,0,2803.2,0.0,0.020036,0,0,2803.2,0.0,0.020036,0,0,2803.2,0.0,0.020036,0,0,2803.2,0.0
1682445516105220938,,1682445516,104652300,,0.02004,0,0,2803.2,0.0,0.02004,0,0,2803.2,0.0,0.02004,0,0,2803.2,0.0,0.02004,0,0,2803.2,0.0
1682445516125684480,,1682445516,125135694,,0.020004,0,0,2803.2,0.0,0.020004,0,0,2803.2,0.0,0.020004,0,0,2803.2,0.0,0.020004,0,0,2803.2,0.0
1682445516146201873,,1682445516,145649161,,0.02002,0,0,2803.2,0.0,0.02002,0,0,2803.2,0.0,0.02002,0,0,2803.2,0.0,0.02002,0,0,2803.2,0.0
1682445516166631175,,1682445516,166139480,,0.02002,0,0,2803.2,0.0,0.02002,0,0,2803.2,0.0,0.02002,0,0,2803.2,0.0,0.02002,0,0,2803.2,0.0
1682445516187047014,,1682445516,186623151,,0.02002,0,0,2803.2,0.0,0.02002,0,0,2803.2,0.0,0.02002,0,0,2803.2,0.0,0.02002,0,0,2803.2,0.0
1682445516207566425,,1682445516,207144766,,0.02002,0,0,2803.2,0.0,0.02002,0,0,2803.2,0.0,0.02002,0,0,2803.2,0.0,0.02002,0,0,2803.2,0.0
1682445516228147650,,1682445516,227679473,,0.020036,0,0,2803.2,0.0,0.020036,0,0,2803.2,0.0,0.020036,0,0,2803.2,0.0,0.020036,0,0,2803.2,0.0
1682445516248474305,,1682445516,248066109,,0.020004,0,0,2803.2,0.0,0.020004,0,0,2803.2,0.0,0.020004,0,0,2803.2,0.0,0.020004,0,0,2803.2,0.0
1682445516264677071,,1682445516,264241079,,0.02002,0,0,2803.2,0.0,0.02002,0,0,2803.2,0.0,0.02002,0,0,2803.2,0.0,0.02002,0,0,2803.2,0.0
1682445516285489163,,1682445516,284854656,,0.020016,0,0,2803.2,0.0,0.020016,0,0,2803.2,0.0,0.020016,0,0,2803.2,0.0,0.020016,0,0,2803.2,0.0
1682445516305972241,,1682445516,305358604,,0.02002,0,0,2803.2,0.0,0.02002,0,0,2803.2,0.0,0.02002,0,0,2803.2,0.0,0.02002,0,0,2803.2,0.0
1682445516326528467,,1682445516,325920126,,0.02002,0,0,2803.2,0.0,0.02002,0,0,2803.2,0.0,0.02002,0,0,2803.2,0.0,0.02002,0,0,2803.2,0.0
1682445516346928732,,1682445516,346395630,,0.020024,0,0,2803.2,0.0,0.020024,0,0,2803.2,0.0,0.020024,0,0,2803.2,0.0,0.020024,0,0,2803.2,0.0
1682445516367421421,,1682445516,366893579,,0.02002,0,0,2803.2,0.0,0.02002,0,0,2803.2,0.0,0.02002,0,0,2803.2,0.0,0.02002,0,0,2803.2,0.0
1682445516387648282,,1682445516,387325344,,0.020016,0,0,2803.2,0.0,0.020016,0,0,2803.2,0.0,0.020016,0,0,2803.2,0.0,0.020016,0,0,2803.2,0.0
1682445516408136287,,1682445516,407838088,,0.02002,0,0,2803.2,0.0,0.02002,0,0,2803.2,0.0,0.02002,0,0,2803.2,0.0,0.02002,0,0,2803.2,0.0
1682445516428544478,,1682445516,428250483,,0.020004,0,0,2803.2,0.0,0.020004,0,0,2803.2,0.0,0.020004,0,0,2803.2,0.0,0.020004,0,0,2803.2,0.0
1682445516444830372,,1682445516,444467027,,0.020036,0,0,2803.2,0.0,0.020036,0,0,2803.2,0.0,0.020036,0,0,2803.2,0.0,0.020036,0,0,2803.2,0.0
1682445516465368487,,1682445516,464984345,,0.020024,0,0,2803.2,0.0,0.020024,0,0,2803.2,0.0,0.020024,0,0,2803.2,0.0,0.020024,0,0,2803.2,0.0
1682445516485766807,,1682445516,485447758,,0.020036,0,0,2803.2,0.0,0.020036,0,0,2803.2,0.0,0.020036,0,0,2803.2,0.0,0.020036,0,0,2803.2,0.0
1682445516506268552,,1682445516,505967484,,0.02002,0,0,2803.2,0.0,0.02002,0,0,2803.2,0.0,0.02002,0,0,2803.2,0.0,0.02002,0,0,2803.2,0.0
1682445516526975312,,1682445516,526560986,,0.02002,0,0,2803.2,0.0,0.02002,0,0,2803.2,0.0,0.02002,0,0,2803.2,0.0,0.02002,0,0,2803.2,0.0
1682445516547336263,,1682445516,547015380,,0.020024,0,0,2803.2,0.0,0.020024,0,0,2803.2,0.0,0.020024,0,0,2803.2,0.0,0.020024,0,0,2803.2,0.0
1682445516567862730,,1682445516,567548698,,0.020036,0,0,2803.2,0.0,0.020036,0,0,2803.2,0.0,0.020036,0,0,2803.2,0.0,0.020036,0,0,2803.2,0.0
1682445516588290606,,1682445516,587988018,,0.020024,0,0,2803.2,0.0,0.020024,0,0,2803.2,0.0,0.020024,0,0,2803.2,0.0,0.020024,0,0,2803.2,0.0
1682445516608744481,,1682445516,608446746,,0.020016,0,0,2803.2,0.0,0.020016,0,0,2803.2,0.0,0.020016,0,0,2803.2,0.0,0.020016,0,0,2803.2,0.0
1682445516625022209,,1682445516,624677956,,0.020004,0,0,2803.2,0.0,0.020004,0,0,2803.2,0.0,0.020004,0,0,2803.2,0.0,0.020004,0,0,2803.2,0.0
1682445516646587268,,1682445516,646158998,,0.020016,0,0,2803.2,0.0,0.020016,0,0,2803.2,0.0,0.020016,0,0,2803.2,0.0,0.020016,0,0,2803.2,0.0
1682445516666258213,,1682445516,665707630,,0.020024,0,0,2803.2,0.0,0.020024,0,0,2803.2,0.0,0.020024,0,0,2803.2,0.0,0.020024,0,0,2803.2,0.0
1682445516686593276,,1682445516,686189301,,0.020036,0,0,2803.2,0.0,0.020036,0,0,2803.2,0.0,0.020036,0,0,2803.2,0.0,0.020036,0,0,2803.2,0.0
1682445516707126779,,1682445516,706712824,,0.020004,0,0,2803.2,0.0,0.020004,0,0,2803.2,0.0,0.020004,0,0,2803.2,0.0,0.020004,0,0,2803.2,0.0
1682445516727628339,,1682445516,727224550,,0.020036,0,0,2803.2,0.0,0.020036,0,0,2803.2,0.0,0.020036,0,0,2803.2,0.0,0.020036,0,0,2803.2,0.0
1682445516748124010,,1682445516,747730054,,0.02002,0,0,2803.2,0.0,0.02002,0,0,2803.2,0.0,0.02002,0,0,2803.2,0.0,0.02002,0,0,2803.2,0.0
1682445516768673643,,1682445516,768232391,,0.020024,0,0,2803.2,0.0,0.020024,0,0,2803.2,0.0,0.020024,0,0,2803.2,0.0,0.020024,0,0,2803.2,0.0
1682445516789205813,,1682445516,788724099,,0.020036,0,0,2803.2,0.0,0.020036,0,0,2803.2,0.0,0.020036,0,0,2803.2,0.0,0.020036,0,0,2803.2,0.0
1682445516805319877,,1682445516,804881774,,0.02002,0,0,2803.2,0.0,0.02002,0,0,2803.2,0.0,0.02002,0,0,2803.2,0.0,0.02002,0,0,2803.2,0.0
1682445516825801585,,1682445516,825389315,,0.020024,0,0,2803.2,0.0,0.020024,0,0,2803.2,0.0,0.020024,0,0,2803.2,0.0,0.020024,0,0,2803.2,0.0
1682445516846266553,,1682445516,845865060,,0.020036,0,0,2803.2,0.0,0.020036,0,0,2803.2,0.0,0.020036,0,0,2803.2,0.0,0.020036,0,0,2803.2,0.0
1682445516866712910,,1682445516,866411286,,0.020024,0,0,2803.2,0.0,0.020024,0,0,2803.2,0.0,0.020024,0,0,2803.2,0.0,0.020024,0,0,2803.2,0.0
1682445516887220710,,1682445516,886916086,,0.020016,0,0,2803.2,0.0,0.020016,0,0,2803.2,0.0,0.020016,0,0,2803.2,0.0,0.020016,0,0,2803.2,0.0
1682445516907795806,,1682445516,907466923,,0.020024,0,0,2803.2,0.0,0.020024,0,0,2803.2,0.0,0.020024,0,0,2803.2,0.0,0.020024,0,0,2803.2,0.0
1682445516928416178,,1682445516,928057833,,0.020036,0,0,2803.2,0.0,0.020036,0,0,2803.2,0.0,0.020036,0,0,2803.2,0.0,0.020036,0,0,2803.2,0.0
1682445516948740334,,1682445516,948441932,,0.02002,0,0,2803.2,0.0,0.02002,0,0,2803.2,0.0,0.02002,0,0,2803.2,0.0,0.02002,0,0,2803.2,0.0
1682445516964802288,,1682445516,964533700,,0.020004,0,0,2803.2,0.0,0.020004,0,0,2803.2,0.0,0.020004,0,0,2803.2,0.0,0.020004,0,0,2803.2,0.0
1682445516985418049,,1682445516,985105369,,0.020016,0,0,2803.2,0.0,0.020016,0,0,2803.2,0.0,0.020016,0,0,2803.2,0.0,0.020016,0,0,2803.2,0.0
1682445517005879258,,1682445517,5591689,,0.02002,0,0,2803.2,0.0,0.02002,0,0,2803.2,0.0,0.02002,0,0,2803.2,0.0,0.02002,0,0,2803.2,0.0
1682445517026442186,,1682445517,26150340,,0.02002,0,0,2803.2,0.0,0.02002,0,0,2803.2,0.0,0.02002,0,0,2803.2,0.0,0.02002,0,0,2803.2,0.0
1682445517047032541,,1682445517,46676399,,0.02002,0,0,2803.2,0.0,0.02002,0,0,2803.2,0.0,0.02002,0,0,2803.2,0.0,0.02002,0,0,2803.2,0.0
1682445517067492064,,1682445517,67192329,,0.020004,0,0,2803.2,0.0,0.020004,0,0,2803.2,0.0,0.020004,0,0,2803.2,0.0,0.020004,0,0,2803.2,0.0
1682445517088350321,,1682445517,87811053,,0.02002,0,0,2803.2,0.0,0.02002,0,0,2803.2,0.0,0.02002,0,0,2803.2,0.0,0.02002,0,0,2803.2,0.0
1682445517108809234,,1682445517,108249503,,0.020016,0,0,2803.2,0.0,0.020016,0,0,2803.2,0.0,0.020016,0,0,2803.2,0.0,0.020016,0,0,2803.2,0.0
1682445517129256943,,1682445517,128730619,,0.020024,0,0,2803.2,0.0,0.020024,0,0,2803.2,0.0,0.020024,0,0,2803.2,0.0,0.020024,0,0,2803.2,0.0
1682445517145353359,,1682445517,144839720,,0.020036,0,0,2803.2,0.0,0.020036,0,0,2803.2,0.0,0.020036,0,0,2803.2,0.0,0.020036,0,0,2803.2,0.0
1682445517165922232,,1682445517,165395982,,0.02002,0,0,2803.2,0.0,0.02002,0,0,2803.2,0.0,0.02002,0,0,2803.2,0.0,0.02002,0,0,2803.2,0.0
1682445517186599215,,1682445517,185976226,,0.020024,0,0,2803.2,0.0,0.020024,0,0,2803.2,0.0,0.020024,0,0,2803.2,0.0,0.020024,0,0,2803.2,0.0
1682445517207008350,,1682445517,206469267,,0.020036,0,0,2803.2,0.0,0.020036,0,0,2803.2,0.0,0.020036,0,0,2803.2,0.0,0.020036,0,0,2803.2,0.0
1682445517227450985,,1682445517,226952920,,0.02002,0,0,2803.2,0.0,0.02002,0,0,2803.2,0.0,0.02002,0,0,2803.2,0.0,0.02002,0,0,2803.2,0.0
1682445517247881009,,1682445517,247424961,,0.020004,0,0,2803.2,0.0,0.020004,0,0,2803.2,0.0,0.020004,0,0,2803.2,0.0,0.020004,0,0,2803.2,0.0
1682445517268428679,,1682445517,267953854,,0.02002,0,0,2803.2,0.0,0.02002,0,0,2803.2,0.0,0.02002,0,0,2803.2,0.0,0.02002,0,0,2803.2,0.0
1682445517288874499,,1682445517,288409914,,0.02002,0,0,2803.2,0.0,0.02002,0,0,2803.2,0.0,0.02002,0,0,2803.2,0.0,0.02002,0,0,2803.2,0.0
1682445517309345485,,1682445517,308862956,,0.020036,0,0,2803.2,0.0,0.020036,0,0,2803.2,0.0,0.020036,0,0,2803.2,0.0,0.020036,0,0,2803.2,0.0
1682445517325580787,,1682445517,325118981,,0.020004,0,0,2803.2,0.0,0.020004,0,0,2803.2,0.0,0.020004,0,0,2803.2,0.0,0.020004,0,0,2803.2,0.0
1682445517346164383,,1682445517,345639263,,0.020036,0,0,2803.2,0.0,0.020036,0,0,2803.2,0.0,0.020036,0,0,2803.2,0.0,0.020036,0,0,2803.2,0.0
1682445517366892624,,1682445517,366183507,,0.020004,0,0,2803.2,0.0,0.020004,0,0,2803.2,0.0,0.020004,0,0,2803.2,0.0,0.020004,0,0,2803.2,0.0
1682445517389590089,,1682445517,386973098,,0.02002,0,0,2803.2,0.0,0.02002,0,0,2803.2,0.0,0.02002,0,0,2803.2,0.0,0.02002,0,0,2803.2,0.0
1682445517407649877,,1682445517,407170830,,0.02002,0,0,2803.2,0.0,0.02002,0,0,2803.2,0.0,0.02002,0,0,2803.2,0.0,0.02002,0,0,2803.2,0.0
1682445517428143992,,1682445517,427678667,,0.02002,0,0,2803.2,0.0,0.02002,0,0,2803.2,0.0,0.02002,0,0,2803.2,0.0,0.02002,0,0,2803.2,0.0
1682445517448642756,,1682445517,448188764,,0.02002,0,0,2803.2,0.0,0.02002,0,0,2803.2,0.0,0.02002,0,0,2803.2,0.0,0.02002,0,0,2803.2,0.0
1682445517469074187,,1682445517,468606547,,0.020036,0,0,2803.2,0.0,0.020036,0,0,2803.2,0.0,0.020036,0,0,2803.2,0.0,0.020036,0,0,2803.2,0.0
1682445517485230139,,1682445517,484765000,,0.020024,0,0,2803.2,0.0,0.020024,0,0,2803.2,0.0,0.020024,0,0,2803.2,0.0,0.020024,0,0,2803.2,0.0
1682445517505814346,,1682445517,505317429,,0.020036,0,0,2803.2,0.0,0.020036,0,0,2803.2,0.0,0.020036,0,0,2803.2,0.0,0.020036,0,0,2803.2,0.0
1682445517526405145,,1682445517,525867802,,0.020024,0,0,2803.2,0.0,0.020024,0,0,2803.2,0.0,0.020024,0,0,2803.2,0.0,0.020024,0,0,2803.2,0.0
1682445517546934389,,1682445517,546383010,,0.020016,0,0,2803.2,0.0,0.020016,0,0,2803.2,0.0,0.020016,0,0,2803.2,0.0,0.020016,0,0,2803.2,0.0
1682445517567365913,,1682445517,566860033,,0.020004,0,0,2803.2,0.0,0.020004,0,0,2803.2,0.0,0.020004,0,0,2803.2,0.0,0.020004,0,0,2803.2,0.0
1682445517587798270,,1682445517,587357241,,0.02002,0,0,2803.2,0.0,0.02002,0,0,2803.2,0.0,0.02002,0,0,2803.2,0.0,0.02002,0,0,2803.2,0.0
1682445517609410847,,1682445517,608876357,,0.02002,0,0,2803.2,0.0,0.02002,0,0,2803.2,0.0,0.02002,0,0,2803.2,0.0,0.02002,0,0,2803.2,0.0
1682445517628847185,,1682445517,628409082,,0.02002,0,0,2803.2,0.0,0.02002,0,0,2803.2,0.0,0.02002,0,0,2803.2,0.0,0.02002,0,0,2803.2,0.0
1682445517649244802,,1682445517,648814125,,0.020036,0,0,2803.2,0.0,0.020036,0,0,2803.2,0.0,0.020036,0,0,2803.2,0.0,0.020036,0,0,2803.2,0.0
1682445517665403865,,1682445517,664983521,,0.020004,0,0,2803.2,0.0,0.020004,0,0,2803.2,0.0,0.020004,0,0,2803.2,0.0,0.020004,0,0,2803.2,0.0
1682445517686244308,,1682445517,685623152,,0.020016,0,0,2803.2,0.0,0.020016,0,0,2803.2,0.0,0.020016,0,0,2803.2,0.0,0.020016,0,0,2803.2,0.0
1682445517706681999,,1682445517,706114490,,0.020004,0,0,2803.2,0.0,0.020004,0,0,2803.2,0.0,0.020004,0,0,2803.2,0.0,0.020004,0,0,2803.2,0.0
1682445517727280538,,1682445517,726662660,,0.020036,0,0,2803.2,0.0,0.020036,0,0,2803.2,0.0,0.020036,0,0,2803.2,0.0,0.020036,0,0,2803.2,0.0
1682445517748079796,,1682445517,747126702,,0.02002,0,0,2803.2,0.0,0.02002,0,0,2803.2,0.0,0.02002,0,0,2803.2,0.0,0.02002,0,0,2803.2,0.0
1682445517768212751,,1682445517,767624243,,0.020004,0,0,2803.2,0.0,0.020004,0,0,2803.2,0.0,0.020004,0,0,2803.2,0.0,0.020004,0,0,2803.2,0.0
1682445517788662127,,1682445517,788161525,,0.02002,0,0,2803.2,0.0,0.02002,0,0,2803.2,0.0,0.02002,0,0,2803.2,0.0,0.02002,0,0,2803.2,0.0
1682445517809192408,,1682445517,808671658,,0.02002,0,0,2803.2,0.0,0.02002,0,0,2803.2,0.0,0.02002,0,0,2803.2,0.0,0.02002,0,0,2803.2,0.0
1682445517829682894,,1682445517,829163440,,0.020016,0,0,2803.2,0.0,0.020016,0,0,2803.2,0.0,0.020016,0,0,2803.2,0.0,0.020016,0,0,2803.2,0.0
1682445517845827291,,1682445517,845309522,,0.020004,0,0,2803.2,0.0,0.020004,0,0,2803.2,0.0,0.020004,0,0,2803.2,0.0,0.020004,0,0,2803.2,0.0
1682445517866345480,,1682445517,865827952,,0.02002,0,0,2803.2,0.0,0.02002,0,0,2803.2,0.0,0.02002,0,0,2803.2,0.0,0.02002,0,0,2803.2,0.0
1682445517886779448,,1682445517,886286253,,0.02002,0,0,2803.2,0.0,0.02002,0,0,2803.2,0.0,0.02002,0,0,2803.2,0.0,0.02002,0,0,2803.2,0.0
1682445517907299304,,1682445517,906788572,,0.02002,0,0,2803.2,0.0,0.02002,0,0,2803.2,0.0,0.02002,0,0,2803.2,0.0,0.02002,0,0,2803.2,0.0
1682445517927804215,,1682445517,927303743,,0.020036,0,0,2803.2,0.0,0.020036,0,0,2803.2,0.0,0.020036,0,0,2803.2,0.0,0.020036,0,0,2803.2,0.0
1682445517948242813,,1682445517,947811080,,0.020004,0,0,2803.2,0.0,0.020004,0,0,2803.2,0.0,0.020004,0,0,2803.2,0.0,0.020004,0,0,2803.2,0.0
1682445517968895129,,1682445517,968436601,,0.02002,0,0,2803.2,0.0,0.02002,0,0,2803.2,0.0,0.02002,0,0,2803.2,0.0,0.02002,0,0,2803.2,0.0
1682445517989258210,,1682445517,988774108,,0.020036,0,0,2803.2,0.0,0.020036,0,0,2803.2,0.0,0.020036,0,0,2803.2,0.0,0.020036,0,0,2803.2,0.0
1682445518005558012,,1682445518,5011762,,0.020004,0,0,2803.2,0.0,0.020004,0,0,2803.2,0.0,0.020004,0,0,2803.2,0.0,0.020004,0,0,2803.2,0.0
1682445518025940055,,1682445518,25451897,,0.02002,0,0,2803.2,0.0,0.02002,0,0,2803.2,0.0,0.02002,0,0,2803.2,0.0,0.02002,0,0,2803.2,0.0
1682445518046588760,,1682445518,46057547,,0.020016,0,0,2803.2,0.0,0.020016,0,0,2803.2,0.0,0.020016,0,0,2803.2,0.0,0.020016,0,0,2803.2,0.0
1682445518067082598,,1682445518,66559755,,0.02002,0,0,2803.2,0.0,0.02002,0,0,2803.2,0.0,0.02002,0,0,2803.2,0.0,0.02002,0,0,2803.2,0.0
1682445518087659767,,1682445518,87071352,,0.02002,0,0,2803.2,0.0,0.02002,0,0,2803.2,0.0,0.02002,0,0,2803.2,0.0,0.02002,0,0,2803.2,0.0
1682445518107936553,,1682445518,107506746,,0.020024,0,0,2803.2,0.0,0.020024,0,0,2803.2,0.0,0.020024,0,0,2803.2,0.0,0.020024,0,0,2803.2,0.0
1682445518128465112,,1682445518,128051861,,0.020036,0,0,2803.2,0.0,0.020036,0,0,2803.2,0.0,0.020036,0,0,2803.2,0.0,0.020036,0,0,2803.2,0.0
1682445518148989505,,1682445518,148547439,,0.02002,0,0,2803.2,0.0,0.02002,0,0,2803.2,0.0,0.02002,0,0,2803.2,0.0,0.02002,0,0,2803.2,0.0
1682445518169427955,,1682445518,168999314,,0.020004,0,0,2803.2,0.0,0.020004,0,0,2803.2,0.0,0.020004,0,0,2803.2,0.0,0.020004,0,0,2803.2,0.0
1682445518185761626,,1682445518,185223191,,0.020016,0,0,2803.2,0.0,0.020016,0,0,2803.2,0.0,0.020016,0,0,2803.2,0.0,0.020016,0,0,2803.2,0.0
1682445518206654031,,1682445518,205731177,,0.02002,0,0,2803.2,0.0,0.02002,0,0,2803.2,0.0,0.02002,0,0,2803.2,0.0,0.02002,0,0,2803.2,0.0
1682445518226927743,,1682445518,226273939,,0.020004,0,0,2803.2,0.0,0.020004,0,0,2803.2,0.0,0.020004,0,0,2803.2,0.0,0.020004,0,0,2803.2,0.0
1682445518247356766,,1682445518,246737537,,0.02002,0,0,2803.2,0.0,0.02002,0,0,2803.2,0.0,0.02002,0,0,2803.2,0.0,0.02002,0,0,2803.2,0.0
1682445518267945269,,1682445518,267314188,,0.02002,0,0,2803.2,0.0,0.02002,0,0,2803.2,0.0,0.02002,0,0,2803.2,0.0,0.02002,0,0,2803.2,0.0
1682445518288341960,,1682445518,287756712,,0.02002,0,0,2803.2,0.0,0.02002,0,0,2803.2,0.0,0.02002,0,0,2803.2,0.0,0.02002,0,0,2803.2,0.0
1682445518308807984,,1682445518,308267790,,0.020016,0,0,2803.2,0.0,0.020016,0,0,2803.2,0.0,0.020016,0,0,2803.2,0.0,0.020016,0,0,2803.2,0.0
1682445518329262840,,1682445518,328742128,,0.020024,0,0,2803.2,0.0,0.020024,0,0,2803.2,0.0,0.020024,0,0,2803.2,0.0,0.020024,0,0,2803.2,0.0
1682445518349732030,,1682445518,349203410,,0.020036,0,0,2803.2,0.0,0.020036,0,0,2803.2,0.0,0.020036,0,0,2803.2,0.0,0.020036,0,0,2803.2,0.0
1682445518365930315,,1682445518,365387491,,0.02002,0,0,2803.2,0.0,0.02002,0,0,2803.2,0.0,0.02002,0,0,2803.2,0.0,0.02002,0,0,2803.2,0.0
1682445518386488411,,1682445518,385891588,,0.02002,0,0,2803.2,0.0,0.02002,0,0,2803.2,0.0,0.02002,0,0,2803.2,0.0,0.02002,0,0,2803.2,0.0
1682445518407081950,,1682445518,406438777,,0.02002,0,0,2803.2,0.0,0.02002,0,0,2803.2,0.0,0.02002,0,0,2803.2,0.0,0.02002,0,0,2803.2,0.0
1682445518427596010,,1682445518,426947244,,0.020024,0,0,2803.2,0.0,0.020024,0,0,2803.2,0.0,0.020024,0,0,2803.2,0.0,0.020024,0,0,2803.2,0.0
1682445518448162180,,1682445518,447510173,,0.020016,0,0,2803.2,0.0,0.020016,0,0,2803.2,0.0,0.020016,0,0,2803.2,0.0,0.020016,0,0,2803.2,0.0
1682445518468594444,,1682445518,468027288,,0.020004,0,0,2803.2,0.0,0.020004,0,0,2803.2,0.0,0.020004,0,0,2803.2,0.0,0.020004,0,0,2803.2,0.0
1682445518489026987,,1682445518,488525440,,0.02002,0,0,2803.2,0.0,0.02002,0,0,2803.2,0.0,0.02002,0,0,2803.2,0.0,0.02002,0,0,2803.2,0.0
1682445518509327976,,1682445518,508903335,,0.02002,0,0,2803.2,0.0,0.02002,0,0,2803.2,0.0,0.02002,0,0,2803.2,0.0,0.02002,0,0,2803.2,0.0
1682445518529848387,,1682445518,529359803,,0.020036,0,0,2803.2,0.0,0.020036,0,0,2803.2,0.0,0.020036,0,0,2803.2,0.0,0.020036,0,0,2803.2,0.0
1682445518546028117,,1682445518,545595902,,0.02002,0,0,2803.2,0.0,0.02002,0,0,2803.2,0.0,0.02002,0,0,2803.2,0.0,0.02002,0,0,2803.2,0.0
1682445518566661970,,1682445518,566148776,,0.020004,0,0,2803.2,0.0,0.020004,0,0,2803.2,0.0,0.020004,0,0,2803.2,0.0,0.020004,0,0,2803.2,0.0
1682445518587175548,,1682445518,586673409,,0.02002,0,0,2803.2,0.0,0.02002,0,0,2803.2,0.0,0.02002,0,0,2803.2,0.0,0.02002,0,0,2803.2,0.0
1682445518607764792,,1682445518,607210690,,0.02002,0,0,2803.2,0.0,0.02002,0,0,2803.2,0.0,0.02002,0,0,2803.2,0.0,0.02002,0,0,2803.2,0.0
1682445518628221871,,1682445518,627687843,,0.02002,0,0,2803.2,0.0,0.02002,0,0,2803.2,0.0,0.02002,0,0,2803.2,0.0,0.02002,0,0,2803.2,0.0
1682445518648671265,,1682445518,648197014,,0.020036,0,0,2803.2,0.0,0.020036,0,0,2803.2,0.0,0.020036,0,0,2803.2,0.0,0.020036,0,0,2803.2,0.0
1682445518669179954,,1682445518,668705222,,0.020004,0,0,2803.2,0.0,0.020004,0,0,2803.2,0.0,0.020004,0,0,2803.2,0.0,0.020004,0,0,2803.2,0.0
1682445518689916250,,1682445518,689289335,,0.02002,0,0,2803.2,0.0,0.02002,0,0,2803.2,0.0,0.02002,0,0,2803.2,0.0,0.02002,0,0,2803.2,0.0
1682445518705935186,,1682445518,705313160,,0.02002,0,0,2803.2,0.0,0.02002,0,0,2803.2,0.0,0.02002,0,0,2803.2,0.0,0.02002,0,0,2803.2,0.0
1682445518726452153,,1682445518,725842905,,0.02002,0,0,2803.2,0.0,0.02002,0,0,2803.2,0.0,0.02002,0,0,2803.2,0.0,0.02002,0,0,2803.2,0.0
1682445518747023989,,1682445518,746408352,,0.02002,0,0,2803.2,0.0,0.02002,0,0,2803.2,0.0,0.02002,0,0,2803.2,0.0,0.02002,0,0,2803.2,0.0
1682445518767521216,,1682445518,766853431,,0.020016,0,0,2803.2,0.0,0.020016,0,0,2803.2,0.0,0.020016,0,0,2803.2,0.0,0.020016,0,0,2803.2,0.0
1682445518788168014,,1682445518,787467674,,0.020024,0,0,2803.2,0.0,0.020024,0,0,2803.2,0.0,0.020024,0,0,2803.2,0.0,0.020024,0,0,2803.2,0.0
1682445518808534205,,1682445518,807939716,,0.02002,0,0,2803.2,0.0,0.02002,0,0,2803.2,0.0,0.02002,0,0,2803.2,0.0,0.02002,0,0,2803.2,0.0
1682445518829003525,,1682445518,828441850,,0.020036,0,0,2803.2,0.0,0.020036,0,0,2803.2,0.0,0.020036,0,0,2803.2,0.0,0.020036,0,0,2803.2,0.0
1682445518849348606,,1682445518,848879873,,0.020004,0,0,2803.2,0.0,0.020004,0,0,2803.2,0.0,0.020004,0,0,2803.2,0.0,0.020004,0,0,2803.2,0.0
1682445518869860443,,1682445518,869371341,,0.02002,0,0,2803.2,0.0,0.02002,0,0,2803.2,0.0,0.02002,0,0,2803.2,0.0,0.02002,0,0,2803.2,0.0
1682445518886020488,,1682445518,885538941,,0.020016,0,0,2803.2,0.0,0.020016,0,0,2803.2,0.0,0.020016,0,0,2803.2,0.0,0.020016,0,0,2803.2,0.0
1682445518906517955,,1682445518,906042112,,0.02002,0,0,2803.2,0.0,0.02002,0,0,2803.2,0.0,0.02002,0,0,2803.2,0.0,0.02002,0,0,2803.2,0.0
1682445518927232141,,1682445518,926637151,,0.020024,0,0,2803.2,0.0,0.020024,0,0,2803.2,0.0,0.020024,0,0,2803.2,0.0,0.020024,0,0,2803.2,0.0
1682445518947642091,,1682445518,947131415,,0.02002,0,0,2803.2,0.0,0.02002,0,0,2803.2,0.0,0.02002,0,0,2803.2,0.0,0.02002,0,0,2803.2,0.0
1682445518968136799,,1682445518,967633326,,0.020016,0,0,2803.2,0.0,0.020016,0,0,2803.2,0.0,0.020016,0,0,2803.2,0.0,0.020016,0,0,2803.2,0.0
1682445518988678302,,1682445518,988149719,,0.020004,0,0,2803.2,0.0,0.020004,0,0,2803.2,0.0,0.020004,0,0,2803.2,0.0,0.020004,0,0,2803.2,0.0
1682445519009100956,,1682445519,8653205,,0.02002,0,0,2803.2,0.0,0.02002,0,0,2803.2,0.0,0.02002,0,0,2803.2,0.0,0.02002,0,0,2803.2,0.0
1682445519029547220,,1682445519,29087321,,0.020036,0,0,2803.2,0.0,0.020036,0,0,2803.2,0.0,0.020036,0,0,2803.2,0.0,0.020036,0,0,2803.2,0.0
1682445519050046076,,1682445519,49594381,,0.020044,0,0,2803.2,0.0,0.020044,0,0,2803.2,0.0,0.020044,0,0,2803.2,0.0,0.020044,0,0,2803.2,0.0
1682445519066179881,,1682445519,65760925,,0.020016,0,0,2803.2,0.0,0.020016,0,0,2803.2,0.0,0.020016,0,0,2803.2,0.0,0.020016,0,0,2803.2,0.0
1682445519086793198,,1682445519,86309947,,0.020004,0,0,2803.2,0.0,0.020004,0,0,2803.2,0.0,0.020004,0,0,2803.2,0.0,0.020004,0,0,2803.2,0.0
1682445519107272313,,1682445519,106806451,,0.020036,0,0,2803.2,0.0,0.020036,0,0,2803.2,0.0,0.020036,0,0,2803.2,0.0,0.020036,0,0,2803.2,0.0
1682445519127946055,,1682445519,127422435,,0.020024,0,0,2803.2,0.0,0.020024,0,0,2803.2,0.0,0.020024,0,0,2803.2,0.0,0.020024,0,0,2803.2,0.0
1682445519148377801,,1682445519,147863403,,0.020016,0,0,2803.2,0.0,0.020016,0,0,2803.2,0.0,0.020016,0,0,2803.2,0.0,0.020016,0,0,2803.2,0.0
1682445519168839899,,1682445519,168377111,,0.020024,0,0,2803.2,0.0,0.020024,0,0,2803.2,0.0,0.020024,0,0,2803.2,0.0,0.020024,0,0,2803.2,0.0
1682445519189434883,,1682445519,188891689,,0.02002,0,0,2803.2,0.0,0.02002,0,0,2803.2,0.0,0.02002,0,0,2803.2,0.0,0.02002,0,0,2803.2,0.0
1682445519210162327,,1682445519,209504358,,0.020016,0,0,2803.2,0.0,0.020016,0,0,2803.2,0.0,0.020016,0,0,2803.2,0.0,0.020016,0,0,2803.2,0.0
1682445519226041655,,1682445519,225513590,,0.02002,0,0,2803.2,0.0,0.02002,0,0,2803.2,0.0,0.02002,0,0,2803.2,0.0,0.02002,0,0,2803.2,0.0
1682445519246582992,,1682445519,245990817,,0.02002,0,0,2803.2,0.0,0.02002,0,0,2803.2,0.0,0.02002,0,0,2803.2,0.0,0.02002,0,0,2803.2,0.0
1682445519266981220,,1682445519,266518191,,0.020004,0,0,2803.2,0.0,0.020004,0,0,2803.2,0.0,0.020004,0,0,2803.2,0.0,0.020004,0,0,2803.2,0.0
1682445519287468835,,1682445519,287010547,,0.020036,0,0,2803.2,0.0,0.020036,0,0,2803.2,0.0,0.020036,0,0,2803.2,0.0,0.020036,0,0,2803.2,0.0
1682445519308016024,,1682445519,307549180,,0.020024,0,0,2803.2,0.0,0.020024,0,0,2803.2,0.0,0.020024,0,0,2803.2,0.0,0.020024,0,0,2803.2,0.0
1682445519328806671,,1682445519,328169127,,0.02002,0,0,2803.2,0.0,0.02002,0,0,2803.2,0.0,0.02002,0,0,2803.2,0.0,0.02002,0,0,2803.2,0.0
1682445519349291509,,1682445519,348730204,,0.020016,0,0,2803.2,0.0,0.020016,0,0,2803.2,0.0,0.020016,0,0,2803.2,0.0,0.020016,0,0,2803.2,0.0
1682445519370400687,,1682445519,369833494,,0.02002,0,0,2803.2,0.0,0.02002,0,0,2803.2,0.0,0.02002,0,0,2803.2,0.0,0.02002,0,0,2803.2,0.0
1682445519390140446,,1682445519,389654251,,0.020024,0,0,2803.2,0.0,0.020024,0,0,2803.2,0.0,0.020024,0,0,2803.2,0.0,0.020024,0,0,2803.2,0.0
1682445519406169567,,1682445519,405731667,,0.020016,0,0,2803.2,0.0,0.020016,0,0,2803.2,0.0,0.020016,0,0,2803.2,0.0,0.020016,0,0,2803.2,0.0
1682445519426594684,,1682445519,426191024,,0.020024,0,0,2803.2,0.0,0.020024,0,0,2803.2,0.0,0.020024,0,0,2803.2,0.0,0.020024,0,0,2803.2,0.0
1682445519447101354,,1682445519,446691399,,0.02002,0,0,2803.2,0.0,0.02002,0,0,2803.2,0.0,0.02002,0,0,2803.2,0.0,0.02002,0,0,2803.2,0.0
1682445519467622303,,1682445519,467222550,,0.020016,0,0,2803.2,0.0,0.020016,0,0,2803.2,0.0,0.020016,0,0,2803.2,0.0,0.020016,0,0,2803.2,0.0
1682445519488496244,,1682445519,487830034,,0.02002,0,0,2803.2,0.0,0.02002,0,0,2803.2,0.0,0.02002,0,0,2803.2,0.0,0.02002,0,0,2803.2,0.0
1682445519508748309,,1682445519,508283187,,0.020004,0,0,2803.2,0.0,0.020004,0,0,2803.2,0.0,0.020004,0,0,2803.2,0.0,0.020004,0,0,2803.2,0.0
1682445519529257090,,1682445519,528797636,,0.02002,0,0,2803.2,0.0,0.02002,0,0,2803.2,0.0,0.02002,0,0,2803.2,0.0,0.02002,0,0,2803.2,0.0
1682445519549794927,,1682445519,549313751,,0.020016,0,0,2803.2,0.0,0.020016,0,0,2803.2,0.0,0.020016,0,0,2803.2,0.0,0.020016,0,0,2803.2,0.0
1682445519570156601,,1682445519,569701609,,0.020004,0,0,2803.2,0.0,0.020004,0,0,2803.2,0.0,0.020004,0,0,2803.2,0.0,0.020004,0,0,2803.2,0.0
1682445519586448106,,1682445519,585947022,,0.020036,0,0,2803.2,0.0,0.020036,0,0,2803.2,0.0,0.020036,0,0,2803.2,0.0,0.020036,0,0,2803.2,0.0
1682445519607072015,,1682445519,606526488,,0.020024,0,0,2803.2,0.0,0.020024,0,0,2803.2,0.0,0.020024,0,0,2803.2,0.0,0.020024,0,0,2803.2,0.0
1682445519627584667,,1682445519,627020066,,0.020016,0,0,2803.2,0.0,0.020016,0,0,2803.2,0.0,0.020016,0,0,2803.2,0.0,0.020016,0,0,2803.2,0.0
1682445519647978803,,1682445519,647468664,,0.02002,0,0,2803.2,0.0,0.02002,0,0,2803.2,0.0,0.02002,0,0,2803.2,0.0,0.02002,0,0,2803.2,0.0
1682445519668475993,,1682445519,668011927,,0.020004,0,0,2803.2,0.0,0.020004,0,0,2803.2,0.0,0.020004,0,0,2803.2,0.0,0.020004,0,0,2803.2,0.0
1682445519688949090,,1682445519,688486357,,0.020016,0,0,2803.2,0.0,0.020016,0,0,2803.2,0.0,0.020016,0,0,2803.2,0.0,0.020016,0,0,2803.2,0.0
1682445519709458872,,1682445519,709009991,,0.02002,0,0,2803.2,0.0,0.02002,0,0,2803.2,0.0,0.02002,0,0,2803.2,0.0,0.02002,0,0,2803.2,0.0
1682445519729897432,,1682445519,729443774,,0.02002,0,0,2803.2,0.0,0.02002,0,0,2803.2,0.0,0.02002,0,0,2803.2,0.0,0.02002,0,0,2803.2,0.0
1682445519746079051,,1682445519,745608948,,0.020024,0,0,2803.2,0.0,0.020024,0,0,2803.2,0.0,0.020024,0,0,2803.2,0.0,0.020024,0,0,2803.2,0.0
1682445519766623406,,1682445519,766141563,,0.020016,0,0,2803.2,0.0,0.020016,0,0,2803.2,0.0,0.020016,0,0,2803.2,0.0,0.020016,0,0,2803.2,0.0
1682445519787121410,,1682445519,786648845,,0.020024,0,0,2803.2,0.0,0.020024,0,0,2803.2,0.0,0.020024,0,0,2803.2,0.0,0.020024,0,0,2803.2,0.0
1682445519807961445,,1682445519,807309013,,0.020036,0,0,2803.2,0.0,0.020036,0,0,2803.2,0.0,0.020036,0,0,2803.2,0.0,0.020036,0,0,2803.2,0.0
1682445519828447487,,1682445519,827768647,,0.020004,0,0,2803.2,0.0,0.020004,0,0,2803.2,0.0,0.020004,0,0,2803.2,0.0,0.020004,0,0,2803.2,0.0
1682445519848931177,,1682445519,848316836,,0.02002,0,0,2803.2,0.0,0.02002,0,0,2803.2,0.0,0.02002,0,0,2803.2,0.0,0.02002,0,0,2803.2,0.0
1682445519869353515,,1682445519,868779470,,0.020016,0,0,2803.2,0.0,0.020016,0,0,2803.2,0.0,0.020016,0,0,2803.2,0.0,0.020016,0,0,2803.2,0.0
1682445519889829816,,1682445519,889273160,,0.02002,0,0,2803.2,0.0,0.02002,0,0,2803.2,0.0,0.02002,0,0,2803.2,0.0,0.02002,0,0,2803.2,0.0
1682445519910014993,,1682445519,909620037,,0.020004,0,0,2803.2,0.0,0.020004,0,0,2803.2,0.0,0.020004,0,0,2803.2,0.0,0.020004,0,0,2803.2,0.0
1682445519926207111,,1682445519,925801970,,0.02002,0,0,2803.2,0.0,0.02002,0,0,2803.2,0.0,0.02002,0,0,2803.2,0.0,0.02002,0,0,2803.2,0.0
1682445519946743170,,1682445519,946333659,,0.02002,0,0,2803.2,0.0,0.02002,0,0,2803.2,0.0,0.02002,0,0,2803.2,0.0,0.02002,0,0,2803.2,0.0
1682445519967309710,,1682445519,966870162,,0.020036,0,0,2803.2,0.0,0.020036,0,0,2803.2,0.0,0.020036,0,0,2803.2,0.0,0.020036,0,0,2803.2,0.0
1682445519987934027,,1682445519,987522664,,0.020004,0,0,2803.2,0.0,0.020004,0,0,2803.2,0.0,0.020004,0,0,2803.2,0.0,0.020004,0,0,2803.2,0.0
1682445520008579973,,1682445520,7999280,,0.020036,0,0,2803.2,0.0,0.020036,0,0,2803.2,0.0,0.020036,0,0,2803.2,0.0,0.020036,0,0,2803.2,0.0
1682445520029204030,,1682445520,28573727,,0.02002,0,0,2803.2,0.0,0.02002,0,0,2803.2,0.0,0.02002,0,0,2803.2,0.0,0.02002,0,0,2803.2,0.0
1682445520049663609,,1682445520,49034398,,0.02002,0,0,2803.2,0.0,0.02002,0,0,2803.2,0.0,0.02002,0,0,2803.2,0.0,0.02002,0,0,2803.2,0.0
1682445520070035060,,1682445520,69500329,,0.020004,0,0,2803.2,0.0,0.020004,0,0,2803.2,0.0,0.020004,0,0,2803.2,0.0,0.020004,0,0,2803.2,0.0
1682445520090894540,,1682445520,90052536,,0.020036,0,0,2803.2,0.0,0.020036,0,0,2803.2,0.0,0.020036,0,0,2803.2,0.0,0.020036,0,0,2803.2,0.0
1682445520106605222,,1682445520,106074213,,0.02002,0,0,2803.2,0.0,0.02002,0,0,2803.2,0.0,0.02002,0,0,2803.2,0.0,0.02002,0,0,2803.2,0.0
1682445520127066208,,1682445520,126564495,,0.020024,0,0,2803.2,0.0,0.020024,0,0,2803.2,0.0,0.020024,0,0,2803.2,0.0,0.020024,0,0,2803.2,0.0
1682445520147788690,,1682445520,147155627,,0.020036,0,0,2803.2,0.0,0.020036,0,0,2803.2,0.0,0.020036,0,0,2803.2,0.0,0.020036,0,0,2803.2,0.0
1682445520168221788,,1682445520,167683946,,0.02002,0,0,2803.2,0.0,0.02002,0,0,2803.2,0.0,0.02002,0,0,2803.2,0.0,0.02002,0,0,2803.2,0.0
1682445520188622961,,1682445520,188158024,,0.020004,0,0,2803.2,0.0,0.020004,0,0,2803.2,0.0,0.020004,0,0,2803.2,0.0,0.020004,0,0,2803.2,0.0
1682445520209168464,,1682445520,208627751,,0.020036,0,0,2803.2,0.0,0.020036,0,0,2803.2,0.0,0.020036,0,0,2803.2,0.0,0.020036,0,0,2803.2,0.0
1682445520229708449,,1682445520,229170496,,0.02002,0,0,2803.2,0.0,0.02002,0,0,2803.2,0.0,0.02002,0,0,2803.2,0.0,0.02002,0,0,2803.2,0.0
1682445520250201805,,1682445520,249666722,,0.02002,0,0,2803.2,0.0,0.02002,0,0,2803.2,0.0,0.02002,0,0,2803.2,0.0,0.02002,0,0,2803.2,0.0
1682445520270606903,,1682445520,270082042,,0.020024,0,0,2803.2,0.0,0.020024,0,0,2803.2,0.0,0.020024,0,0,2803.2,0.0,0.020024,0,0,2803.2,0.0
1682445520287122053,,1682445520,286363974,,0.020016,0,0,2803.2,0.0,0.020016,0,0,2803.2,0.0,0.020016,0,0,2803.2,0.0,0.020016,0,0,2803.2,0.0
1682445520307529096,,1682445520,306847423,,0.02002,0,0,2803.2,0.0,0.02002,0,0,2803.2,0.0,0.02002,0,0,2803.2,0.0,0.02002,0,0,2803.2,0.0
1682445520327930694,,1682445520,327342316,,0.020024,0,0,2803.2,0.0,0.020024,0,0,2803.2,0.0,0.020024,0,0,2803.2,0.0,0.020024,0,0,2803.2,0.0
1682445520348431236,,1682445520,347891245,,0.020036,0,0,2803.2,0.0,0.020036,0,0,2803.2,0.0,0.020036,0,0,2803.2,0.0,0.020036,0,0,2803.2,0.0
1682445520368862945,,1682445520,368379824,,0.02002,0,0,2803.2,0.0,0.02002,0,0,2803.2,0.0,0.02002,0,0,2803.2,0.0,0.02002,0,0,2803.2,0.0
1682445520389381486,,1682445520,388902846,,0.020004,0,0,2803.2,0.0,0.020004,0,0,2803.2,0.0,0.020004,0,0,2803.2,0.0,0.020004,0,0,2803.2,0.0
1682445520411261484,,1682445520,410762900,,0.020036,0,0,2803.2,0.0,0.020036,0,0,2803.2,0.0,0.020036,0,0,2803.2,0.0,0.020036,0,0,2803.2,0.0
1682445520430597268,,1682445520,429934261,,0.020004,0,0,2803.2,0.0,0.020004,0,0,2803.2,0.0,0.020004,0,0,2803.2,0.0,0.020004,0,0,2803.2,0.0
1682445520446755627,,1682445520,446069177,,0.02002,0,0,2803.2,0.0,0.02002,0,0,2803.2,0.0,0.02002,0,0,2803.2,0.0,0.02002,0,0,2803.2,0.0
1682445520467311186,,1682445520,466542070,,0.020016,0,0,2803.2,0.0,0.020016,0,0,2803.2,0.0,0.020016,0,0,2803.2,0.0,0.020016,0,0,2803.2,0.0
1682445520487597176,,1682445520,487032630,,0.02002,0,0,2803.2,0.0,0.02002,0,0,2803.2,0.0,0.02002,0,0,2803.2,0.0,0.02002,0,0,2803.2,0.0
1682445520507985071,,1682445520,507501616,,0.02002,0,0,2803.2,0.0,0.02002,0,0,2803.2,0.0,0.02002,0,0,2803.2,0.0,0.02002,0,0,2803.2,0.0
1682445520528490686,,1682445520,528043935,,0.020004,0,0,2803.2,0.0,0.020004,0,0,2803.2,0.0,0.020004,0,0,2803.2,0.0,0.020004,0,0,2803.2,0.0
1682445520549020356,,1682445520,548568772,,0.020016,0,0,2803.2,0.0,0.020016,0,0,2803.2,0.0,0.020016,0,0,2803.2,0.0,0.020016,0,0,2803.2,0.0
1682445520569498787,,1682445520,569086850,,0.020024,0,0,2803.2,0.0,0.020024,0,0,2803.2,0.0,0.020024,0,0,2803.2,0.0,0.020024,0,0,2803.2,0.0
1682445520590124437,,1682445520,589621316,,0.020036,0,0,2803.2,0.0,0.020036,0,0,2803.2,0.0,0.020036,0,0,2803.2,0.0,0.020036,0,0,2803.2,0.0
1682445520611159302,,1682445520,610199282,,0.02002,0,0,2803.2,0.0,0.02002,0,0,2803.2,0.0,0.02002,0,0,2803.2,0.0,0.02002,0,0,2803.2,0.0
1682445520627273607,,1682445520,626370678,,0.020024,0,0,2803.2,0.0,0.020024,0,0,2803.2,0.0,0.020024,0,0,2803.2,0.0,0.020024,0,0,2803.2,0.0
1682445520647823202,,1682445520,647168473,,0.020036,0,0,2803.2,0.0,0.020036,0,0,2803.2,0.0,0.020036,0,0,2803.2,0.0,0.020036,0,0,2803.2,0.0
1682445520667849715,,1682445520,667281614,,0.020004,0,0,2803.2,0.0,0.020004,0,0,2803.2,0.0,0.020004,0,0,2803.2,0.0,0.020004,0,0,2803.2,0.0
1682445520688339053,,1682445520,687791433,,0.02002,0,0,2803.2,0.0,0.02002,0,0,2803.2,0.0,0.02002,0,0,2803.2,0.0,0.02002,0,0,2803.2,0.0
1682445520708646301,,1682445520,708246827,,0.020016,0,0,2803.2,0.0,0.020016,0,0,2803.2,0.0,0.020016,0,0,2803.2,0.0,0.020016,0,0,2803.2,0.0
1682445520729142861,,1682445520,728763942,,0.02002,0,0,2803.2,0.0,0.02002,0,0,2803.2,0.0,0.02002,0,0,2803.2,0.0,0.02002,0,0,2803.2,0.0
1682445520749722179,,1682445520,749303779,,0.020004,0,0,2803.2,0.0,0.020004,0,0,2803.2,0.0,0.020004,0,0,2803.2,0.0,0.020004,0,0,2803.2,0.0
1682445520770186702,,1682445520,769790061,,0.020016,0,0,2803.2,0.0,0.020016,0,0,2803.2,0.0,0.020016,0,0,2803.2,0.0,0.020016,0,0,2803.2,0.0
1682445520790635040,,1682445520,790237788,,0.020004,0,0,2803.2,0.0,0.020004,0,0,2803.2,0.0,0.020004,0,0,2803.2,0.0,0.020004,0,0,2803.2,0.0
1682445520807065802,,1682445520,806485572,,0.020036,0,0,2803.2,0.0,0.020036,0,0,2803.2,0.0,0.020036,0,0,2803.2,0.0,0.020036,0,0,2803.2,0.0
1682445520827596250,,1682445520,826975262,,0.020024,0,0,2803.2,0.0,0.020024,0,0,2803.2,0.0,0.020024,0,0,2803.2,0.0,0.020024,0,0,2803.2,0.0
1682445520848123328,,1682445520,847503099,,0.02002,0,0,2803.2,0.0,0.02002,0,0,2803.2,0.0,0.02002,0,0,2803.2,0.0,0.02002,0,0,2803.2,0.0
1682445520868563556,,1682445520,868004917,,0.02002,0,0,2803.2,0.0,0.02002,0,0,2803.2,0.0,0.02002,0,0,2803.2,0.0,0.02002,0,0,2803.2,0.0
1682445520889222909,,1682445520,888594642,,0.020036,0,0,2803.2,0.0,0.020036,0,0,2803.2,0.0,0.020036,0,0,2803.2,0.0,0.020036,0,0,2803.2,0.0
1682445520909622748,,1682445520,909074739,,0.020004,0,0,2803.2,0.0,0.020004,0,0,2803.2,0.0,0.020004,0,0,2803.2,0.0,0.020004,0,0,2803.2,0.0
1682445520930236102,,1682445520,929668631,,0.020036,0,0,2803.2,0.0,0.020036,0,0,2803.2,0.0,0.020036,0,0,2803.2,0.0,0.020036,0,0,2803.2,0.0
1682445520950666404,,1682445520,950088636,,0.020004,0,0,2803.2,0.0,0.020004,0,0,2803.2,0.0,0.020004,0,0,2803.2,0.0,0.020004,0,0,2803.2,0.0
1682445520966838134,,1682445520,966232885,,0.02002,0,0,2803.2,0.0,0.02002,0,0,2803.2,0.0,0.02002,0,0,2803.2,0.0,0.02002,0,0,2803.2,0.0
1682445520987221732,,1682445520,986694001,,0.020016,0,0,2803.2,0.0,0.020016,0,0,2803.2,0.0,0.020016,0,0,2803.2,0.0,0.020016,0,0,2803.2,0.0
1682445521007563906,,1682445521,7173172,,0.02002,0,0,2803.2,0.0,0.02002,0,0,2803.2,0.0,0.02002,0,0,2803.2,0.0,0.02002,0,0,2803.2,0.0
1682445521028084410,,1682445521,27680713,,0.02002,0,0,2803.2,0.0,0.02002,0,0,2803.2,0.0,0.02002,0,0,2803.2,0.0,0.02002,0,0,2803.2,0.0
1682445521048587562,,1682445521,48203384,,0.020004,0,0,2803.2,0.0,0.020004,0,0,2803.2,0.0,0.020004,0,0,2803.2,0.0,0.020004,0,0,2803.2,0.0
1682445521069282896,,1682445521,68802127,,0.020036,0,0,2803.2,0.0,0.020036,0,0,2803.2,0.0,0.020036,0,0,2803.2,0.0,0.020036,0,0,2803.2,0.0
1682445521089677125,,1682445521,89230392,,0.02002,0,0,2803.2,0.0,0.02002,0,0,2803.2,0.0,0.02002,0,0,2803.2,0.0,0.02002,0,0,2803.2,0.0
1682445521110416050,,1682445521,109835283,,0.02002,0,0,2803.2,0.0,0.02002,0,0,2803.2,0.0,0.02002,0,0,2803.2,0.0,0.02002,0,0,2803.2,0.0
1682445521130882926,,1682445521,130312102,,0.020024,0,0,2803.2,0.0,0.020024,0,0,2803.2,0.0,0.020024,0,0,2803.2,0.0,0.020024,0,0,2803.2,0.0
1682445521147025433,,1682445521,146445944,,0.020016,0,0,2803.2,0.0,0.020016,0,0,2803.2,0.0,0.020016,0,0,2803.2,0.0,0.020016,0,0,2803.2,0.0
1682445521167398033,,1682445521,166887931,,0.02002,0,0,2803.2,0.0,0.02002,0,0,2803.2,0.0,0.02002,0,0,2803.2,0.0,0.02002,0,0,2803.2,0.0
1682445521188067867,,1682445521,187466656,,0.020004,0,0,2803.2,0.0,0.020004,0,0,2803.2,0.0,0.020004,0,0,2803.2,0.0,0.020004,0,0,2803.2,0.0
1682445521208426874,,1682445521,207936957,,0.020016,0,0,2803.2,0.0,0.020016,0,0,2803.2,0.0,0.020016,0,0,2803.2,0.0,0.020016,0,0,2803.2,0.0
1682445521228949563,,1682445521,228452386,,0.02004,0,0,2803.2,0.0,0.02004,0,0,2803.2,0.0,0.02004,0,0,2803.2,0.0,0.02004,0,0,2803.2,0.0
1682445521249521714,,1682445521,248982501,,0.020004,0,0,2803.2,0.0,0.020004,0,0,2803.2,0.0,0.020004,0,0,2803.2,0.0,0.020004,0,0,2803.2,0.0
1682445521270079569,,1682445521,269518579,,0.020016,0,0,2803.2,0.0,0.020016,0,0,2803.2,0.0,0.020016,0,0,2803.2,0.0,0.020016,0,0,2803.2,0.0
1682445521290608980,,1682445521,290052453,,0.020024,0,0,2803.2,0.0,0.020024,0,0,2803.2,0.0,0.020024,0,0,2803.2,0.0,0.020024,0,0,2803.2,0.0
1682445521310904339,,1682445521,310447811,,0.020036,0,0,2803.2,0.0,0.020036,0,0,2803.2,0.0,0.020036,0,0,2803.2,0.0,0.020036,0,0,2803.2,0.0
1682445521327085162,,1682445521,326630207,,0.020024,0,0,2803.2,0.0,0.020024,0,0,2803.2,0.0,0.020024,0,0,2803.2,0.0,0.020024,0,0,2803.2,0.0
1682445521347559370,,1682445521,347122044,,0.02002,0,0,2803.2,0.0,0.02002,0,0,2803.2,0.0,0.02002,0,0,2803.2,0.0,0.02002,0,0,2803.2,0.0
1682445521368123299,,1682445521,367649307,,0.020036,0,0,2803.2,0.0,0.020036,0,0,2803.2,0.0,0.020036,0,0,2803.2,0.0,0.020036,0,0,2803.2,0.0
1682445521388584359,,1682445521,388121645,,0.020004,0,0,2803.2,0.0,0.020004,0,0,2803.2,0.0,0.020004,0,0,2803.2,0.0,0.020004,0,0,2803.2,0.0
1682445521409317378,,1682445521,408750925,,0.02002,0,0,2803.2,0.0,0.02002,0,0,2803.2,0.0,0.02002,0,0,2803.2,0.0,0.02002,0,0,2803.2,0.0
1682445521430686718,,1682445521,429870159,,0.02002,0,0,2803.2,0.0,0.02002,0,0,2803.2,0.0,0.02002,0,0,2803.2,0.0,0.02002,0,0,2803.2,0.0
1682445521450562530,,1682445521,449773396,,0.02002,0,0,2803.2,0.0,0.02002,0,0,2803.2,0.0,0.02002,0,0,2803.2,0.0,0.02002,0,0,2803.2,0.0
1682445521470915833,,1682445521,470237753,,0.02002,0,0,2803.2,0.0,0.02002,0,0,2803.2,0.0,0.02002,0,0,2803.2,0.0,0.02002,0,0,2803.2,0.0
1682445521486914732,,1682445521,486365094,,0.020036,0,0,2803.2,0.0,0.020036,0,0,2803.2,0.0,0.020036,0,0,2803.2,0.0,0.020036,0,0,2803.2,0.0
1682445521507246203,,1682445521,506802025,,0.020004,0,0,2803.2,0.0,0.020004,0,0,2803.2,0.0,0.020004,0,0,2803.2,0.0,0.020004,0,0,2803.2,0.0
1682445521527745281,,1682445521,527328733,,0.020016,0,0,2803.2,0.0,0.020016,0,0,2803.2,0.0,0.020016,0,0,2803.2,0.0,0.020016,0,0,2803.2,0.0
1682445521548287266,,1682445521,547864273,,0.020004,0,0,2803.2,0.0,0.020004,0,0,2803.2,0.0,0.020004,0,0,2803.2,0.0,0.020004,0,0,2803.2,0.0
1682445521568837010,,1682445521,568408962,,0.020016,0,0,2803.2,0.0,0.020016,0,0,2803.2,0.0,0.020016,0,0,2803.2,0.0,0.020016,0,0,2803.2,0.0
1682445521589308903,,1682445521,588888541,,0.02002,0,0,2803.2,0.0,0.02002,0,0,2803.2,0.0,0.02002,0,0,2803.2,0.0,0.02002,0,0,2803.2,0.0
1682445521610041459,,1682445521,609496302,,0.02002,0,0,2803.2,0.0,0.02002,0,0,2803.2,0.0,0.02002,0,0,2803.2,0.0,0.02002,0,0,2803.2,0.0
1682445521630544315,,1682445521,629983066,,0.02002,0,0,2803.2,0.0,0.02002,0,0,2803.2,0.0,0.02002,0,0,2803.2,0.0,0.02002,0,0,2803.2,0.0
1682445521651265149,,1682445521,650439811,,0.020004,0,0,2803.2,0.0,0.020004,0,0,2803.2,0.0,0.020004,0,0,2803.2,0.0,0.020004,0,0,2803.2,0.0
1682445521667394249,,1682445521,666633059,,0.020036,0,0,2803.2,0.0,0.020036,0,0,2803.2,0.0,0.020036,0,0,2803.2,0.0,0.020036,0,0,2803.2,0.0
1682445521687758367,,1682445521,687182340,,0.02002,0,0,2803.2,0.0,0.02002,0,0,2803.2,0.0,0.02002,0,0,2803.2,0.0,0.02002,0,0,2803.2,0.0
1682445521707837008,,1682445521,707501681,,0.020004,0,0,2803.2,0.0,0.020004,0,0,2803.2,0.0,0.020004,0,0,2803.2,0.0,0.020004,0,0,2803.2,0.0
1682445521728298884,,1682445521,728001037,,0.02002,0,0,2803.2,0.0,0.02002,0,0,2803.2,0.0,0.02002,0,0,2803.2,0.0,0.02002,0,0,2803.2,0.0
1682445521748805517,,1682445521,748506726,,0.02002,0,0,2803.2,0.0,0.02002,0,0,2803.2,0.0,0.02002,0,0,2803.2,0.0,0.02002,0,0,2803.2,0.0
1682445521769312373,,1682445521,769020804,,0.02002,0,0,2803.2,0.0,0.02002,0,0,2803.2,0.0,0.02002,0,0,2803.2,0.0,0.02002,0,0,2803.2,0.0
1682445521792136540,,1682445521,789587141,,0.020036,0,0,2803.2,0.0,0.020036,0,0,2803.2,0.0,0.020036,0,0,2803.2,0.0,0.020036,0,0,2803.2,0.0
1682445521810459175,,1682445521,810089867,,0.02002,0,0,2803.2,0.0,0.02002,0,0,2803.2,0.0,0.02002,0,0,2803.2,0.0,0.02002,0,0,2803.2,0.0
1682445521830778090,,1682445521,830467651,,0.02002,0,0,2803.2,0.0,0.02002,0,0,2803.2,0.0,0.02002,0,0,2803.2,0.0,0.02002,0,0,2803.2,0.0
1682445521846964597,,1682445521,846674325,,0.02002,0,0,2803.2,0.0,0.02002,0,0,2803.2,0.0,0.02002,0,0,2803.2,0.0,0.02002,0,0,2803.2,0.0
1682445521867483583,,1682445521,867192754,,0.02002,0,0,2803.2,0.0,0.02002,0,0,2803.2,0.0,0.02002,0,0,2803.2,0.0,0.02002,0,0,2803.2,0.0
1682445521888051771,,1682445521,887723869,,0.020024,0,0,2803.2,0.0,0.020024,0,0,2803.2,0.0,0.020024,0,0,2803.2,0.0,0.020024,0,0,2803.2,0.0
1682445521908531368,,1682445521,908236466,,0.020036,0,0,2803.2,0.0,0.020036,0,0,2803.2,0.0,0.020036,0,0,2803.2,0.0,0.020036,0,0,2803.2,0.0
1682445521929118463,,1682445521,928779191,,0.02002,0,0,2803.2,0.0,0.02002,0,0,2803.2,0.0,0.02002,0,0,2803.2,0.0,0.02002,0,0,2803.2,0.0
1682445521949640078,,1682445521,949299047,,0.02002,0,0,2803.2,0.0,0.02002,0,0,2803.2,0.0,0.02002,0,0,2803.2,0.0,0.02002,0,0,2803.2,0.0
1682445521970103935,,1682445521,969806940,,0.020024,0,0,2803.2,0.0,0.020024,0,0,2803.2,0.0,0.020024,0,0,2803.2,0.0,0.020024,0,0,2803.2,0.0
1682445521990501681,,1682445521,990219612,,0.020016,0,0,2803.2,0.0,0.020016,0,0,2803.2,0.0,0.020016,0,0,2803.2,0.0,0.020016,0,0,2803.2,0.0
1682445522006693874,,1682445522,6387861,,0.020004,0,0,2803.2,0.0,0.020004,0,0,2803.2,0.0,0.020004,0,0,2803.2,0.0,0.020004,0,0,2803.2,0.0
1682445522027178897,,1682445522,26892050,,0.02002,0,0,2803.2,0.0,0.02002,0,0,2803.2,0.0,0.02002,0,0,2803.2,0.0,0.02002,0,0,2803.2,0.0
1682445522047730604,,1682445522,47428702,,0.020036,0,0,2803.2,0.0,0.020036,0,0,2803.2,0.0,0.020036,0,0,2803.2,0.0,0.020036,0,0,2803.2,0.0
1682445522068242756,,1682445522,67923169,,0.02002,0,0,2803.2,0.0,0.02002,0,0,2803.2,0.0,0.02002,0,0,2803.2,0.0,0.02002,0,0,2803.2,0.0
1682445522088789315,,1682445522,88468172,,0.020024,0,0,2803.2,0.0,0.020024,0,0,2803.2,0.0,0.020024,0,0,2803.2,0.0,0.020024,0,0,2803.2,0.0
1682445522109392002,,1682445522,109030675,,0.020036,0,0,2803.2,0.0,0.020036,0,0,2803.2,0.0,0.020036,0,0,2803.2,0.0,0.020036,0,0,2803.2,0.0
1682445522129853618,,1682445522,129529254,,0.020004,0,0,2803.2,0.0,0.020004,0,0,2803.2,0.0,0.020004,0,0,2803.2,0.0,0.020004,0,0,2803.2,0.0
1682445522150353048,,1682445522,150023480,,0.020036,0,0,2803.2,0.0,0.020036,0,0,2803.2,0.0,0.020036,0,0,2803.2,0.0,0.020036,0,0,2803.2,0.0
1682445522170733444,,1682445522,170437541,,0.020024,0,0,2803.2,0.0,0.020024,0,0,2803.2,0.0,0.020024,0,0,2803.2,0.0,0.020024,0,0,2803.2,0.0
1682445522186964765,,1682445522,186656011,,0.02002,0,0,2803.2,0.0,0.02002,0,0,2803.2,0.0,0.02002,0,0,2803.2,0.0,0.02002,0,0,2803.2,0.0
1682445522207436140,,1682445522,207129775,,0.020016,0,0,2803.2,0.0,0.020016,0,0,2803.2,0.0,0.020016,0,0,2803.2,0.0,0.020016,0,0,2803.2,0.0
1682445522227998809,,1682445522,227666204,,0.02002,0,0,2803.2,0.0,0.02002,0,0,2803.2,0.0,0.02002,0,0,2803.2,0.0,0.02002,0,0,2803.2,0.0
1682445522248460314,,1682445522,248150024,,0.02002,0,0,2803.2,0.0,0.02002,0,0,2803.2,0.0,0.02002,0,0,2803.2,0.0,0.02002,0,0,2803.2,0.0
1682445522269098001,,1682445522,268734137,,0.020004,0,0,2803.2,0.0,0.020004,0,0,2803.2,0.0,0.020004,0,0,2803.2,0.0,0.020004,0,0,2803.2,0.0
1682445522289636246,,1682445522,289211994,,0.02002,0,0,2803.2,0.0,0.02002,0,0,2803.2,0.0,0.02002,0,0,2803.2,0.0,0.02002,0,0,2803.2,0.0
1682445522310080251,,1682445522,309709702,,0.02002,0,0,2803.2,0.0,0.02002,0,0,2803.2,0.0,0.02002,0,0,2803.2,0.0,0.02002,0,0,2803.2,0.0
1682445522330527367,,1682445522,330161892,,0.020016,0,0,2803.2,0.0,0.020016,0,0,2803.2,0.0,0.020016,0,0,2803.2,0.0,0.020016,0,0,2803.2,0.0
1682445522351010649,,1682445522,350651656,,0.020024,0,0,2803.2,0.0,0.020024,0,0,2803.2,0.0,0.020024,0,0,2803.2,0.0,0.020024,0,0,2803.2,0.0
1682445522367193990,,1682445522,366833237,,0.020016,0,0,2803.2,0.0,0.020016,0,0,2803.2,0.0,0.020016,0,0,2803.2,0.0,0.020016,0,0,2803.2,0.0
1682445522387794344,,1682445522,387380796,,0.020024,0,0,2803.2,0.0,0.020024,0,0,2803.2,0.0,0.020024,0,0,2803.2,0.0,0.020024,0,0,2803.2,0.0
1682445522408378828,,1682445522,407875059,,0.020016,0,0,2803.2,0.0,0.020016,0,0,2803.2,0.0,0.020016,0,0,2803.2,0.0,0.020016,0,0,2803.2,0.0
1682445522429267733,,1682445522,428534931,,0.02002,0,0,2803.2,0.0,0.02002,0,0,2803.2,0.0,0.02002,0,0,2803.2,0.0,0.02002,0,0,2803.2,0.0
1682445522449802236,,1682445522,449063342,,0.020004,0,0,2803.2,0.0,0.020004,0,0,2803.2,0.0,0.020004,0,0,2803.2,0.0,0.020004,0,0,2803.2,0.0
1682445522470138947,,1682445522,469532032,,0.02002,0,0,2803.2,0.0,0.02002,0,0,2803.2,0.0,0.02002,0,0,2803.2,0.0,0.02002,0,0,2803.2,0.0
1682445522490561027,,1682445522,490027110,,0.020016,0,0,2803.2,0.0,0.020016,0,0,2803.2,0.0,0.020016,0,0,2803.2,0.0,0.020016,0,0,2803.2,0.0
1682445522511345711,,1682445522,510581521,,0.020024,0,0,2803.2,0.0,0.020024,0,0,2803.2,0.0,0.020024,0,0,2803.2,0.0,0.020024,0,0,2803.2,0.0
1682445522531404353,,1682445522,530955176,,0.020016,0,0,2803.2,0.0,0.020016,0,0,2803.2,0.0,0.020016,0,0,2803.2,0.0,0.020016,0,0,2803.2,0.0
1682445522547549138,,1682445522,547131239,,0.020004,0,0,2803.2,0.0,0.020004,0,0,2803.2,0.0,0.020004,0,0,2803.2,0.0,0.020004,0,0,2803.2,0.0
1682445522568302897,,1682445522,567727945,,0.02002,0,0,2803.2,0.0,0.02002,0,0,2803.2,0.0,0.02002,0,0,2803.2,0.0,0.02002,0,0,2803.2,0.0
1682445522588606720,,1682445522,588174635,,0.020036,0,0,2803.2,0.0,0.020036,0,0,2803.2,0.0,0.020036,0,0,2803.2,0.0,0.020036,0,0,2803.2,0.0
1682445522609349349,,1682445522,608693065,,0.02004,0,0,2803.2,0.0,0.02004,0,0,2803.2,0.0,0.02004,0,0,2803.2,0.0,0.02004,0,0,2803.2,0.0
1682445522630000629,,1682445522,629302011,,0.020004,0,0,2803.2,0.0,0.020004,0,0,2803.2,0.0,0.020004,0,0,2803.2,0.0,0.020004,0,0,2803.2,0.0
1682445522650373283,,1682445522,649783960,,0.020016,0,0,2803.2,0.0,0.020016,0,0,2803.2,0.0,0.020016,0,0,2803.2,0.0,0.020016,0,0,2803.2,0.0
1682445522670890676,,1682445522,670317631,,0.020024,0,0,2803.2,0.0,0.020024,0,0,2803.2,0.0,0.020024,0,0,2803.2,0.0,0.020024,0,0,2803.2,0.0
1682445522691287534,,1682445522,690754229,,0.02002,0,0,2803.2,0.0,0.02002,0,0,2803.2,0.0,0.02002,0,0,2803.2,0.0,0.02002,0,0,2803.2,0.0
1682445522707392746,,1682445522,706855552,,0.02002,0,0,2803.2,0.0,0.02002,0,0,2803.2,0.0,0.02002,0,0,2803.2,0.0,0.02002,0,0,2803.2,0.0
1682445522727780030,,1682445522,727340927,,0.020016,0,0,2803.2,0.0,0.020016,0,0,2803.2,0.0,0.020016,0,0,2803.2,0.0,0.020016,0,0,2803.2,0.0
1682445522748373310,,1682445522,747901893,,0.020024,0,0,2803.2,0.0,0.020024,0,0,2803.2,0.0,0.020024,0,0,2803.2,0.0,0.020024,0,0,2803.2,0.0
1682445522768846130,,1682445522,768379972,,0.02002,0,0,2803.2,0.0,0.02002,0,0,2803.2,0.0,0.02002,0,0,2803.2,0.0,0.02002,0,0,2803.2,0.0
1682445522789392967,,1682445522,788902512,,0.02002,0,0,2803.2,0.0,0.02002,0,0,2803.2,0.0,0.02002,0,0,2803.2,0.0,0.02002,0,0,2803.2,0.0
1682445522810421721,,1682445522,809441442,,0.02002,0,0,2803.2,0.0,0.02002,0,0,2803.2,0.0,0.02002,0,0,2803.2,0.0,0.02002,0,0,2803.2,0.0
1682445522830621101,,1682445522,830096184,,0.020036,0,0,2803.2,0.0,0.020036,0,0,2803.2,0.0,0.020036,0,0,2803.2,0.0,0.020036,0,0,2803.2,0.0
1682445522850880516,,1682445522,850422691,,0.020004,0,0,2803.2,0.0,0.020004,0,0,2803.2,0.0,0.020004,0,0,2803.2,0.0,0.020004,0,0,2803.2,0.0
1682445522871308855,,1682445522,870865845,,0.020036,0,0,2803.2,0.0,0.020036,0,0,2803.2,0.0,0.020036,0,0,2803.2,0.0,0.020036,0,0,2803.2,0.0
1682445522887496455,,1682445522,887038815,,0.02002,0,0,2803.2,0.0,0.02002,0,0,2803.2,0.0,0.02002,0,0,2803.2,0.0,0.02002,0,0,2803.2,0.0
1682445522908033255,,1682445522,907561893,,0.020024,0,0,2803.2,0.0,0.020024,0,0,2803.2,0.0,0.020024,0,0,2803.2,0.0,0.020024,0,0,2803.2,0.0
1682445522928583943,,1682445522,928099711,,0.02002,0,0,2803.2,0.0,0.02002,0,0,2803.2,0.0,0.02002,0,0,2803.2,0.0,0.02002,0,0,2803.2,0.0
1682445522949065485,,1682445522,948599864,,0.02002,0,0,2803.2,0.0,0.02002,0,0,2803.2,0.0,0.02002,0,0,2803.2,0.0,0.02002,0,0,2803.2,0.0
1682445522969681672,,1682445522,969188162,,0.02002,0,0,2803.2,0.0,0.02002,0,0,2803.2,0.0,0.02002,0,0,2803.2,0.0,0.02002,0,0,2803.2,0.0
1682445522990149140,,1682445522,989659037,,0.02002,0,0,2803.2,0.0,0.02002,0,0,2803.2,0.0,0.02002,0,0,2803.2,0.0,0.02002,0,0,2803.2,0.0
1682445523010779994,,1682445523,10224689,,0.02002,0,0,2803.2,0.0,0.02002,0,0,2803.2,0.0,0.02002,0,0,2803.2,0.0,0.02002,0,0,2803.2,0.0
1682445523031189555,,1682445523,30664972,,0.020036,0,0,2803.2,0.0,0.020036,0,0,2803.2,0.0,0.020036,0,0,2803.2,0.0,0.020036,0,0,2803.2,0.0
1682445523051532414,,1682445523,51077959,,0.02002,0,0,2803.2,0.0,0.02002,0,0,2803.2,0.0,0.02002,0,0,2803.2,0.0,0.02002,0,0,2803.2,0.0
1682445523067783031,,1682445523,67299169,,0.020004,0,0,2803.2,0.0,0.020004,0,0,2803.2,0.0,0.020004,0,0,2803.2,0.0,0.020004,0,0,2803.2,0.0
1682445523088353552,,1682445523,87864820,,0.02002,0,0,2803.2,0.0,0.02002,0,0,2803.2,0.0,0.02002,0,0,2803.2,0.0,0.02002,0,0,2803.2,0.0
1682445523108825594,,1682445523,108332992,,0.020016,0,0,2803.2,0.0,0.020016,0,0,2803.2,0.0,0.020016,0,0,2803.2,0.0,0.020016,0,0,2803.2,0.0
1682445523129334005,,1682445523,128856921,,0.020004,0,0,2803.2,0.0,0.020004,0,0,2803.2,0.0,0.020004,0,0,2803.2,0.0,0.020004,0,0,2803.2,0.0
1682445523149893842,,1682445523,149376222,,0.02002,0,0,2803.2,0.0,0.02002,0,0,2803.2,0.0,0.02002,0,0,2803.2,0.0,0.02002,0,0,2803.2,0.0
1682445523170430031,,1682445523,169914521,,0.020016,0,0,2803.2,0.0,0.020016,0,0,2803.2,0.0,0.020016,0,0,2803.2,0.0,0.020016,0,0,2803.2,0.0
1682445523190954460,,1682445523,190410229,,0.020004,0,0,2803.2,0.0,0.020004,0,0,2803.2,0.0,0.020004,0,0,2803.2,0.0,0.020004,0,0,2803.2,0.0
1682445523213194785,,1682445523,212223414,,0.020036,0,0,2803.2,0.0,0.020036,0,0,2803.2,0.0,0.020036,0,0,2803.2,0.0,0.020036,0,0,2803.2,0.0
1682445523227718304,,1682445523,226998705,,0.020004,0,0,2803.2,0.0,0.020004,0,0,2803.2,0.0,0.020004,0,0,2803.2,0.0,0.020004,0,0,2803.2,0.0
1682445523248014941,,1682445523,247500395,,0.020016,0,0,2803.2,0.0,0.020016,0,0,2803.2,0.0,0.020016,0,0,2803.2,0.0,0.020016,0,0,2803.2,0.0
1682445523268507094,,1682445523,268026028,,0.020024,0,0,2803.2,0.0,0.020024,0,0,2803.2,0.0,0.020024,0,0,2803.2,0.0,0.020024,0,0,2803.2,0.0
1682445523289011394,,1682445523,288520755,,0.020036,0,0,2803.2,0.0,0.020036,0,0,2803.2,0.0,0.020036,0,0,2803.2,0.0,0.020036,0,0,2803.2,0.0
1682445523309678932,,1682445523,309161534,,0.02002,0,0,2803.2,0.0,0.02002,0,0,2803.2,0.0,0.02002,0,0,2803.2,0.0,0.02002,0,0,2803.2,0.0
1682445523330098308,,1682445523,329587706,,0.020004,0,0,2803.2,0.0,0.020004,0,0,2803.2,0.0,0.020004,0,0,2803.2,0.0,0.020004,0,0,2803.2,0.0
1682445523350748124,,1682445523,350187079,,0.020016,0,0,2803.2,0.0,0.020016,0,0,2803.2,0.0,0.020016,0,0,2803.2,0.0,0.020016,0,0,2803.2,0.0
1682445523371226351,,1682445523,370643362,,0.02002,0,0,2803.2,0.0,0.02002,0,0,2803.2,0.0,0.02002,0,0,2803.2,0.0,0.02002,0,0,2803.2,0.0
1682445523391524581,,1682445523,391036220,,0.02002,0,0,2803.2,0.0,0.02002,0,0,2803.2,0.0,0.02002,0,0,2803.2,0.0,0.02002,0,0,2803.2,0.0
1682445523407689033,,1682445523,407208375,,0.02004,0,0,2803.2,0.0,0.02004,0,0,2803.2,0.0,0.02004,0,0,2803.2,0.0,0.02004,0,0,2803.2,0.0
1682445523428165464,,1682445523,427689269,,0.02002,0,0,2803.2,0.0,0.02002,0,0,2803.2,0.0,0.02002,0,0,2803.2,0.0,0.02002,0,0,2803.2,0.0
1682445523448677079,,1682445523,448238902,,0.02002,0,0,2803.2,0.0,0.02002,0,0,2803.2,0.0,0.02002,0,0,2803.2,0.0,0.02002,0,0,2803.2,0.0
1682445523469203323,,1682445523,468760313,,0.02002,0,0,2803.2,0.0,0.02002,0,0,2803.2,0.0,0.02002,0,0,2803.2,0.0,0.02002,0,0,2803.2,0.0
1682445523489914435,,1682445523,489335408,,0.020004,0,0,2803.2,0.0,0.020004,0,0,2803.2,0.0,0.020004,0,0,2803.2,0.0,0.020004,0,0,2803.2,0.0
1682445523510416087,,1682445523,509891041,,0.02002,0,0,2803.2,0.0,0.02002,0,0,2803.2,0.0,0.02002,0,0,2803.2,0.0,0.02002,0,0,2803.2,0.0
1682445523530812278,,1682445523,530311528,,0.020016,0,0,2803.2,0.0,0.020016,0,0,2803.2,0.0,0.020016,0,0,2803.2,0.0,0.020016,0,0,2803.2,0.0
1682445523551295783,,1682445523,550816273,,0.020024,0,0,2803.2,0.0,0.020024,0,0,2803.2,0.0,0.020024,0,0,2803.2,0.0,0.020024,0,0,2803.2,0.0
1682445523571695307,,1682445523,571223834,,0.020036,0,0,2803.2,0.0,0.020036,0,0,2803.2,0.0,0.020036,0,0,2803.2,0.0,0.020036,0,0,2803.2,0.0
1682445523587896314,,1682445523,587424508,,0.020044,0,0,2803.2,0.0,0.020044,0,0,2803.2,0.0,0.020044,0,0,2803.2,0.0,0.020044,0,0,2803.2,0.0
1682445523608395281,,1682445523,607930716,,0.020036,0,0,2803.2,0.0,0.020036,0,0,2803.2,0.0,0.020036,0,0,2803.2,0.0,0.020036,0,0,2803.2,0.0
1682445523629176132,,1682445523,628534848,,0.020004,0,0,2803.2,0.0,0.020004,0,0,2803.2,0.0,0.020004,0,0,2803.2,0.0,0.020004,0,0,2803.2,0.0
1682445523649552268,,1682445523,649005241,,0.02002,0,0,2803.2,0.0,0.02002,0,0,2803.2,0.0,0.02002,0,0,2803.2,0.0,0.02002,0,0,2803.2,0.0
1682445523670136512,,1682445523,669546689,,0.02002,0,0,2803.2,0.0,0.02002,0,0,2803.2,0.0,0.02002,0,0,2803.2,0.0,0.02002,0,0,2803.2,0.0
1682445523690563462,,1682445523,690036731,,0.02002,0,0,2803.2,0.0,0.02002,0,0,2803.2,0.0,0.02002,0,0,2803.2,0.0,0.02002,0,0,2803.2,0.0
1682445523711203982,,1682445523,710553605,,0.02002,0,0,2803.2,0.0,0.02002,0,0,2803.2,0.0,0.02002,0,0,2803.2,0.0,0.02002,0,0,2803.2,0.0
1682445523731536545,,1682445523,730943796,,0.02002,0,0,2803.2,0.0,0.02002,0,0,2803.2,0.0,0.02002,0,0,2803.2,0.0,0.02002,0,0,2803.2,0.0
1682445523751933755,,1682445523,751442856,,0.020036,0,0,2803.2,0.0,0.020036,0,0,2803.2,0.0,0.020036,0,0,2803.2,0.0,0.020036,0,0,2803.2,0.0
1682445523768078133,,1682445523,767626845,,0.02004,0,0,2803.2,0.0,0.02004,0,0,2803.2,0.0,0.02004,0,0,2803.2,0.0,0.02004,0,0,2803.2,0.0
1682445523788616877,,1682445523,788152682,,0.020004,0,0,2803.2,0.0,0.020004,0,0,2803.2,0.0,0.020004,0,0,2803.2,0.0,0.020004,0,0,2803.2,0.0
1682445523809150603,,1682445523,808668889,,0.020016,0,0,2803.2,0.0,0.020016,0,0,2803.2,0.0,0.020016,0,0,2803.2,0.0,0.020016,0,0,2803.2,0.0
1682445523829838715,,1682445523,829251984,,0.020024,0,0,2803.2,0.0,0.020024,0,0,2803.2,0.0,0.020024,0,0,2803.2,0.0,0.020024,0,0,2803.2,0.0
1682445523850390718,,1682445523,849788099,,0.02002,0,0,2803.2,0.0,0.02002,0,0,2803.2,0.0,0.02002,0,0,2803.2,0.0,0.02002,0,0,2803.2,0.0
1682445523870818723,,1682445523,870275307,,0.020016,0,0,2803.2,0.0,0.020016,0,0,2803.2,0.0,0.020016,0,0,2803.2,0.0,0.020016,0,0,2803.2,0.0
1682445523891427837,,1682445523,890852717,,0.02002,0,0,2803.2,0.0,0.02002,0,0,2803.2,0.0,0.02002,0,0,2803.2,0.0,0.02002,0,0,2803.2,0.0
1682445523911798232,,1682445523,911238927,,0.02002,0,0,2803.2,0.0,0.02002,0,0,2803.2,0.0,0.02002,0,0,2803.2,0.0,0.02002,0,0,2803.2,0.0
1682445523927793539,,1682445523,927334362,,0.02002,0,0,2803.2,0.0,0.02002,0,0,2803.2,0.0,0.02002,0,0,2803.2,0.0,0.02002,0,0,2803.2,0.0
1682445523948298191,,1682445523,947836755,,0.020024,0,0,2803.2,0.0,0.020024,0,0,2803.2,0.0,0.020024,0,0,2803.2,0.0,0.020024,0,0,2803.2,0.0
1682445523968938360,,1682445523,968428072,,0.02002,0,0,2803.2,0.0,0.02002,0,0,2803.2,0.0,0.02002,0,0,2803.2,0.0,0.02002,0,0,2803.2,0.0
1682445523989559028,,1682445523,989008946,,0.02002,0,0,2803.2,0.0,0.02002,0,0,2803.2,0.0,0.02002,0,0,2803.2,0.0,0.02002,0,0,2803.2,0.0
1682445524009908257,,1682445524,9460432,,0.020016,0,0,2803.2,0.0,0.020016,0,0,2803.2,0.0,0.020016,0,0,2803.2,0.0,0.020016,0,0,2803.2,0.0
1682445524030605147,,1682445524,29990899,,0.02002,0,0,2803.2,0.0,0.02002,0,0,2803.2,0.0,0.02002,0,0,2803.2,0.0,0.02002,0,0,2803.2,0.0
1682445524051060448,,1682445524,50452404,,0.020004,0,0,2803.2,0.0,0.020004,0,0,2803.2,0.0,0.020004,0,0,2803.2,0.0,0.020004,0,0,2803.2,0.0
1682445524071650618,,1682445524,71008666,,0.020036,0,0,2803.2,0.0,0.020036,0,0,2803.2,0.0,0.020036,0,0,2803.2,0.0,0.020036,0,0,2803.2,0.0
1682445524092065994,,1682445524,91405191,,0.020004,0,0,2803.2,0.0,0.020004,0,0,2803.2,0.0,0.020004,0,0,2803.2,0.0,0.020004,0,0,2803.2,0.0
