rosbagTimestamp,stamp,secs,nsecs,mot_data_array,-,sample_period,pwm,encoder_delta,ticks_per_rev,angular_speed,-,sample_period,pwm,encoder_delta,ticks_per_rev,angular_speed,-,sample_period,pwm,encoder_delta,ticks_per_rev,angular_speed,-,sample_period,pwm,encoder_delta,ticks_per_rev,angular_speed
1682444855217263841,,1682444855,216766609,,0.0,0,0,2803.2,0.0,0.0,0,0,2803.2,0.0,0.0,0,0,2803.2,0.0,0.0,0,0,2803.2,0.0
1682444855237631329,,1682444855,237298631,,0.02002,0,0,2803.2,0.0,0.02002,0,0,2803.2,0.0,0.02002,0,0,2803.2,0.0,0.02002,0,0,2803.2,0.0
1682444855258085889,,1682444855,257769728,,0.020024,0,0,2803.2,0.0,0.020024,0,0,2803.2,0.0,0.020024,0,0,2803.2,0.0,0.020024,0,0,2803.2,0.0
1682444855278559616,,1682444855,278296362,,0.02002,0,0,2803.2,0.0,0.02002,0,0,2803.2,0.0,0.02002,0,0,2803.2,0.0,0.02002,0,0,2803.2,0.0
1682444855299334893,,1682444855,298850013,,0.02002,0,0,2803.2,0.0,0.02002,0,0,2803.2,0.0,0.02002,0,0,2803.2,0.0,0.02002,0,0,2803.2,0.0
1682444855320112707,,1682444855,319427405,,0.020036,0,0,2803.2,0.0,0.020036,0,0,2803.2,0.0,0.020036,0,0,2803.2,0.0,0.020036,0,0,2803.2,0.0
1682444855340556749,,1682444855,339872984,,0.020004,0,0,2803.2,0.0,0.020004,0,0,2803.2,0.0,0.020004,0,0,2803.2,0.0,0.020004,0,0,2803.2,0.0
1682444855356617518,,1682444855,356046899,,0.020016,0,0,2803.2,0.0,0.020016,0,0,2803.2,0.0,0.020016,0,0,2803.2,0.0,0.020016,0,0,2803.2,0.0
1682444855377259872,,1682444855,376672604,,0.020004,0,0,2803.2,0.0,0.020004,0,0,2803.2,0.0,0.020004,0,0,2803.2,0.0,0.020004,0,0,2803.2,0.0
1682444855397900059,,1682444855,397130035,,0.020016,0,0,2803.2,0.0,0.020016,0,0,2803.2,0.0,0.020016,0,0,2803.2,0.0,0.020016,0,0,2803.2,0.0
1682444855419015885,,1682444855,417724353,,0.020004,0,0,2803.2,0.0,0.020004,0,0,2803.2,0.0,0.020004,0,0,2803.2,0.0,0.020004,0,0,2803.2,0.0
1682444855439064564,,1682444855,438271041,,0.02002,0,0,2803.2,0.0,0.02002,0,0,2803.2,0.0,0.02002,0,0,2803.2,0.0,0.02002,0,0,2803.2,0.0
1682444855459363775,,1682444855,458694232,,0.020036,0,0,2803.2,0.0,0.020036,0,0,2803.2,0.0,0.020036,0,0,2803.2,0.0,0.020036,0,0,2803.2,0.0
1682444855479820021,,1682444855,479211736,,0.020004,0,0,2803.2,0.0,0.020004,0,0,2803.2,0.0,0.020004,0,0,2803.2,0.0,0.020004,0,0,2803.2,0.0
1682444855500162806,,1682444855,499679148,,0.020036,0,0,2803.2,0.0,0.020036,0,0,2803.2,0.0,0.020036,0,0,2803.2,0.0,0.020036,0,0,2803.2,0.0
1682444855521079303,,1682444855,520205263,,0.020004,0,0,2803.2,0.0,0.020004,0,0,2803.2,0.0,0.020004,0,0,2803.2,0.0,0.020004,0,0,2803.2,0.0
1682444855536482879,,1682444855,536164033,,0.02002,0,0,2803.2,0.0,0.02002,0,0,2803.2,0.0,0.02002,0,0,2803.2,0.0,0.02002,0,0,2803.2,0.0
1682444855557092474,,1682444855,556701944,,0.020016,0,0,2803.2,0.0,0.020016,0,0,2803.2,0.0,0.020016,0,0,2803.2,0.0,0.020016,0,0,2803.2,0.0
1682444855577551016,,1682444855,577221466,,0.02002,0,0,2803.2,0.0,0.02002,0,0,2803.2,0.0,0.02002,0,0,2803.2,0.0,0.02002,0,0,2803.2,0.0
1682444855598024539,,1682444855,597710360,,0.02002,0,0,2803.2,0.0,0.02002,0,0,2803.2,0.0,0.02002,0,0,2803.2,0.0,0.02002,0,0,2803.2,0.0
1682444855618555061,,1682444855,618233863,,0.020004,0,0,2803.2,0.0,0.020004,0,0,2803.2,0.0,0.020004,0,0,2803.2,0.0,0.020004,0,0,2803.2,0.0
1682444855639033936,,1682444855,638737016,,0.020036,0,0,2803.2,0.0,0.020036,0,0,2803.2,0.0,0.020036,0,0,2803.2,0.0,0.020036,0,0,2803.2,0.0
1682444855659602606,,1682444855,659278408,,0.020024,0,0,2803.2,0.0,0.020024,0,0,2803.2,0.0,0.020024,0,0,2803.2,0.0,0.020024,0,0,2803.2,0.0
1682444855680146369,,1682444855,679790764,,0.020016,0,0,2803.2,0.0,0.020016,0,0,2803.2,0.0,0.020016,0,0,2803.2,0.0,0.020016,0,0,2803.2,0.0
1682444855700615410,,1682444855,700238065,,0.020004,0,0,2803.2,0.0,0.020004,0,0,2803.2,0.0,0.020004,0,0,2803.2,0.0,0.020004,0,0,2803.2,0.0
1682444855716717475,,1682444855,716393314,,0.020016,0,0,2803.2,0.0,0.020016,0,0,2803.2,0.0,0.020016,0,0,2803.2,0.0,0.020016,0,0,2803.2,0.0
1682444855737225627,,1682444855,736912818,,0.020024,0,0,2803.2,0.0,0.020024,0,0,2803.2,0.0,0.020024,0,0,2803.2,0.0,0.020024,0,0,2803.2,0.0
1682444855758150623,,1682444855,757622837,,0.02002,0,0,2803.2,0.0,0.02002,0,0,2803.2,0.0,0.02002,0,0,2803.2,0.0,0.02002,0,0,2803.2,0.0
1682444855778259246,,1682444855,777936918,,0.020036,0,0,2803.2,0.0,0.020036,0,0,2803.2,0.0,0.020036,0,0,2803.2,0.0,0.020036,0,0,2803.2,0.0
1682444855798871396,,1682444855,798495292,,0.020004,0,0,2803.2,0.0,0.020004,0,0,2803.2,0.0,0.020004,0,0,2803.2,0.0,0.020004,0,0,2803.2,0.0
1682444855819366863,,1682444855,819008351,,0.020016,0,0,2803.2,0.0,0.020016,0,0,2803.2,0.0,0.020016,0,0,2803.2,0.0,0.020016,0,0,2803.2,0.0
1682444855839804350,,1682444855,839489615,,0.020024,0,0,2803.2,0.0,0.020024,0,0,2803.2,0.0,0.020024,0,0,2803.2,0.0,0.020024,0,0,2803.2,0.0
1682444855860548072,,1682444855,860105895,,0.02002,0,0,2803.2,0.0,0.02002,0,0,2803.2,0.0,0.02002,0,0,2803.2,0.0,0.02002,0,0,2803.2,0.0
1682444855880714601,,1682444855,880398551,,0.02002,0,0,2803.2,0.0,0.02002,0,0,2803.2,0.0,0.02002,0,0,2803.2,0.0,0.02002,0,0,2803.2,0.0
1682444855896908682,,1682444855,896612483,,0.02002,0,0,2803.2,0.0,0.02002,0,0,2803.2,0.0,0.02002,0,0,2803.2,0.0,0.02002,0,0,2803.2,0.0
1682444855917420278,,1682444855,917121210,,0.020036,0,0,2803.2,0.0,0.020036,0,0,2803.2,0.0,0.020036,0,0,2803.2,0.0,0.020036,0,0,2803.2,0.0
1682444855937972337,,1682444855,937654491,,0.020004,0,0,2803.2,0.0,0.020004,0,0,2803.2,0.0,0.020004,0,0,2803.2,0.0,0.020004,0,0,2803.2,0.0
1682444855958469230,,1682444855,958161940,,0.020036,0,0,2803.2,0.0,0.020036,0,0,2803.2,0.0,0.020036,0,0,2803.2,0.0,0.020036,0,0,2803.2,0.0
1682444855979095306,,1682444855,978736887,,0.02002,0,0,2803.2,0.0,0.02002,0,0,2803.2,0.0,0.02002,0,0,2803.2,0.0,0.02002,0,0,2803.2,0.0
1682444855999750845,,1682444855,999315630,,0.02002,0,0,2803.2,0.0,0.02002,0,0,2803.2,0.0,0.02002,0,0,2803.2,0.0,0.02002,0,0,2803.2,0.0
1682444856020026409,,1682444856,19725081,,0.02002,0,0,2803.2,0.0,0.02002,0,0,2803.2,0.0,0.02002,0,0,2803.2,0.0,0.02002,0,0,2803.2,0.0
1682444856040566838,,1682444856,40252695,,0.02002,0,0,2803.2,0.0,0.02002,0,0,2803.2,0.0,0.02002,0,0,2803.2,0.0,0.02002,0,0,2803.2,0.0
1682444856056640606,,1682444856,56329593,,0.020024,0,0,2803.2,0.0,0.020024,0,0,2803.2,0.0,0.020024,0,0,2803.2,0.0,0.020024,0,0,2803.2,0.0
1682444856077210332,,1682444856,76845671,,0.020036,0,0,2803.2,0.0,0.020036,0,0,2803.2,0.0,0.020036,0,0,2803.2,0.0,0.020036,0,0,2803.2,0.0
1682444856097788168,,1682444856,97414119,,0.020024,0,0,2803.2,0.0,0.020024,0,0,2803.2,0.0,0.020024,0,0,2803.2,0.0,0.020024,0,0,2803.2,0.0
1682444856118156045,,1682444856,117867957,,0.020036,0,0,2803.2,0.0,0.020036,0,0,2803.2,0.0,0.020036,0,0,2803.2,0.0,0.020036,0,0,2803.2,0.0
1682444856138747251,,1682444856,138419090,,0.020004,0,0,2803.2,0.0,0.020004,0,0,2803.2,0.0,0.020004,0,0,2803.2,0.0,0.020004,0,0,2803.2,0.0
1682444856159259718,,1682444856,158919242,,0.02002,0,0,2803.2,0.0,0.02002,0,0,2803.2,0.0,0.02002,0,0,2803.2,0.0,0.02002,0,0,2803.2,0.0
1682444856179667557,,1682444856,179379358,,0.020016,0,0,2803.2,0.0,0.020016,0,0,2803.2,0.0,0.020016,0,0,2803.2,0.0,0.020016,0,0,2803.2,0.0
1682444856200155747,,1682444856,199893751,,0.020004,0,0,2803.2,0.0,0.020004,0,0,2803.2,0.0,0.020004,0,0,2803.2,0.0,0.020004,0,0,2803.2,0.0
1682444856220880599,,1682444856,220425755,,0.02002,0,0,2803.2,0.0,0.02002,0,0,2803.2,0.0,0.02002,0,0,2803.2,0.0,0.02002,0,0,2803.2,0.0
1682444856236918627,,1682444856,236539245,,0.020036,0,0,2803.2,0.0,0.020036,0,0,2803.2,0.0,0.020036,0,0,2803.2,0.0,0.020036,0,0,2803.2,0.0
1682444856257611961,,1682444856,257157543,,0.02002,0,0,2803.2,0.0,0.02002,0,0,2803.2,0.0,0.02002,0,0,2803.2,0.0,0.02002,0,0,2803.2,0.0
1682444856278054151,,1682444856,277604011,,0.02002,0,0,2803.2,0.0,0.02002,0,0,2803.2,0.0,0.02002,0,0,2803.2,0.0,0.02002,0,0,2803.2,0.0
1682444856298735523,,1682444856,298219273,,0.020024,0,0,2803.2,0.0,0.020024,0,0,2803.2,0.0,0.020024,0,0,2803.2,0.0,0.020024,0,0,2803.2,0.0
1682444856319302433,,1682444856,318748387,,0.020016,0,0,2803.2,0.0,0.020016,0,0,2803.2,0.0,0.020016,0,0,2803.2,0.0,0.020016,0,0,2803.2,0.0
1682444856344535834,,1682444856,339268521,,0.020004,0,0,2803.2,0.0,0.020004,0,0,2803.2,0.0,0.020004,0,0,2803.2,0.0,0.020004,0,0,2803.2,0.0
1682444856360282997,,1682444856,359750970,,0.020036,0,0,2803.2,0.0,0.020036,0,0,2803.2,0.0,0.020036,0,0,2803.2,0.0,0.020036,0,0,2803.2,0.0
1682444856380725373,,1682444856,380192586,,0.02002,0,0,2803.2,0.0,0.02002,0,0,2803.2,0.0,0.02002,0,0,2803.2,0.0,0.02002,0,0,2803.2,0.0
1682444856401112898,,1682444856,400625369,,0.020004,0,0,2803.2,0.0,0.020004,0,0,2803.2,0.0,0.020004,0,0,2803.2,0.0,0.020004,0,0,2803.2,0.0
1682444856417262461,,1682444856,416813821,,0.020016,0,0,2803.2,0.0,0.020016,0,0,2803.2,0.0,0.020016,0,0,2803.2,0.0,0.020016,0,0,2803.2,0.0
1682444856437672522,,1682444856,437267104,,0.02002,0,0,2803.2,0.0,0.02002,0,0,2803.2,0.0,0.02002,0,0,2803.2,0.0,0.02002,0,0,2803.2,0.0
1682444856458327394,,1682444856,457852551,,0.020024,0,0,2803.2,0.0,0.020024,0,0,2803.2,0.0,0.020024,0,0,2803.2,0.0,0.020024,0,0,2803.2,0.0
1682444856478726215,,1682444856,478305834,,0.020016,0,0,2803.2,0.0,0.020016,0,0,2803.2,0.0,0.020016,0,0,2803.2,0.0,0.020016,0,0,2803.2,0.0
1682444856499371717,,1682444856,498890781,,0.020024,0,0,2803.2,0.0,0.020024,0,0,2803.2,0.0,0.020024,0,0,2803.2,0.0,0.020024,0,0,2803.2,0.0
1682444856520010181,,1682444856,519492005,,0.02002,0,0,2803.2,0.0,0.02002,0,0,2803.2,0.0,0.02002,0,0,2803.2,0.0,0.02002,0,0,2803.2,0.0
1682444856540461705,,1682444856,539971991,,0.02002,0,0,2803.2,0.0,0.02002,0,0,2803.2,0.0,0.02002,0,0,2803.2,0.0,0.02002,0,0,2803.2,0.0
1682444856560775897,,1682444856,560358738,,0.020016,0,0,2803.2,0.0,0.020016,0,0,2803.2,0.0,0.020016,0,0,2803.2,0.0,0.020016,0,0,2803.2,0.0
1682444856576948238,,1682444856,576490524,,0.020024,0,0,2803.2,0.0,0.020024,0,0,2803.2,0.0,0.020024,0,0,2803.2,0.0,0.020024,0,0,2803.2,0.0
1682444856597492797,,1682444856,597023769,,0.020016,0,0,2803.2,0.0,0.020016,0,0,2803.2,0.0,0.020016,0,0,2803.2,0.0,0.020016,0,0,2803.2,0.0
1682444856618125151,,1682444856,617569383,,0.020024,0,0,2803.2,0.0,0.020024,0,0,2803.2,0.0,0.020024,0,0,2803.2,0.0,0.020024,0,0,2803.2,0.0
1682444856638839151,,1682444856,638236477,,0.020016,0,0,2803.2,0.0,0.020016,0,0,2803.2,0.0,0.020016,0,0,2803.2,0.0,0.020016,0,0,2803.2,0.0
1682444856659286638,,1682444856,658695185,,0.02002,0,0,2803.2,0.0,0.02002,0,0,2803.2,0.0,0.02002,0,0,2803.2,0.0,0.02002,0,0,2803.2,0.0
1682444856680117821,,1682444856,679407834,,0.02002,0,0,2803.2,0.0,0.02002,0,0,2803.2,0.0,0.02002,0,0,2803.2,0.0,0.02002,0,0,2803.2,0.0
1682444856700318664,,1682444856,699719138,,0.020004,0,0,2803.2,0.0,0.020004,0,0,2803.2,0.0,0.020004,0,0,2803.2,0.0,0.020004,0,0,2803.2,0.0
1682444856720603265,,1682444856,720180457,,0.020036,0,0,2803.2,0.0,0.020036,0,0,2803.2,0.0,0.020036,0,0,2803.2,0.0,0.020036,0,0,2803.2,0.0
1682444856741015456,,1682444856,740599445,,0.020004,0,0,2803.2,0.0,0.020004,0,0,2803.2,0.0,0.020004,0,0,2803.2,0.0,0.020004,0,0,2803.2,0.0
1682444856757182852,,1682444856,756750989,,0.02002,0,0,2803.2,0.0,0.02002,0,0,2803.2,0.0,0.02002,0,0,2803.2,0.0,0.02002,0,0,2803.2,0.0
1682444856777668208,,1682444856,777265604,,0.020036,0,0,2803.2,0.0,0.020036,0,0,2803.2,0.0,0.020036,0,0,2803.2,0.0,0.020036,0,0,2803.2,0.0
1682444856798322784,,1682444856,797814163,,0.02002,0,0,2803.2,0.0,0.02002,0,0,2803.2,0.0,0.02002,0,0,2803.2,0.0,0.02002,0,0,2803.2,0.0
1682444856819060580,,1682444856,818392648,,0.02002,0,0,2803.2,0.0,0.02002,0,0,2803.2,0.0,0.02002,0,0,2803.2,0.0,0.02002,0,0,2803.2,0.0
1682444856839942559,,1682444856,839284256,,0.020024,0,0,2803.2,0.0,0.020024,0,0,2803.2,0.0,0.020024,0,0,2803.2,0.0,0.020024,0,0,2803.2,0.0
1682444856860079477,,1682444856,859446544,,0.02002,0,0,2803.2,0.0,0.02002,0,0,2803.2,0.0,0.02002,0,0,2803.2,0.0,0.02002,0,0,2803.2,0.0
1682444856880708257,,1682444856,880001621,,0.020036,0,0,2803.2,0.0,0.020036,0,0,2803.2,0.0,0.020036,0,0,2803.2,0.0,0.020036,0,0,2803.2,0.0
1682444856900916877,,1682444856,900375294,,0.02002,0,0,2803.2,0.0,0.02002,0,0,2803.2,0.0,0.02002,0,0,2803.2,0.0,0.02002,0,0,2803.2,0.0
1682444856921311457,,1682444856,920839892,,0.020004,0,0,2803.2,0.0,0.020004,0,0,2803.2,0.0,0.020004,0,0,2803.2,0.0,0.020004,0,0,2803.2,0.0
1682444856937294746,,1682444856,936951493,,0.020016,0,0,2803.2,0.0,0.020016,0,0,2803.2,0.0,0.020016,0,0,2803.2,0.0,0.020016,0,0,2803.2,0.0
1682444856958035227,,1682444856,957501200,,0.02002,0,0,2803.2,0.0,0.02002,0,0,2803.2,0.0,0.02002,0,0,2803.2,0.0,0.02002,0,0,2803.2,0.0
1682444856978711006,,1682444856,978062721,,0.02002,0,0,2803.2,0.0,0.02002,0,0,2803.2,0.0,0.02002,0,0,2803.2,0.0,0.02002,0,0,2803.2,0.0
1682444856998949293,,1682444856,998515338,,0.020004,0,0,2803.2,0.0,0.020004,0,0,2803.2,0.0,0.020004,0,0,2803.2,0.0,0.020004,0,0,2803.2,0.0
1682444857019409298,,1682444857,19014453,,0.020036,0,0,2803.2,0.0,0.020036,0,0,2803.2,0.0,0.020036,0,0,2803.2,0.0,0.020036,0,0,2803.2,0.0
1682444857040050799,,1682444857,39573956,,0.020024,0,0,2803.2,0.0,0.020024,0,0,2803.2,0.0,0.020024,0,0,2803.2,0.0,0.020024,0,0,2803.2,0.0
1682444857060567211,,1682444857,60089423,,0.020016,0,0,2803.2,0.0,0.020016,0,0,2803.2,0.0,0.020016,0,0,2803.2,0.0,0.020016,0,0,2803.2,0.0
1682444857081159509,,1682444857,80640111,,0.020004,0,0,2803.2,0.0,0.020004,0,0,2803.2,0.0,0.020004,0,0,2803.2,0.0,0.020004,0,0,2803.2,0.0
1682444857097205686,,1682444857,96703861,,0.020016,0,0,2803.2,0.0,0.020016,0,0,2803.2,0.0,0.020016,0,0,2803.2,0.0,0.020016,0,0,2803.2,0.0
1682444857117905075,,1682444857,117319567,,0.020004,0,0,2803.2,0.0,0.020004,0,0,2803.2,0.0,0.020004,0,0,2803.2,0.0,0.020004,0,0,2803.2,0.0
1682444857138372302,,1682444857,137798887,,0.02002,0,0,2803.2,0.0,0.02002,0,0,2803.2,0.0,0.02002,0,0,2803.2,0.0,0.02002,0,0,2803.2,0.0
1682444857159482092,,1682444857,158419370,,0.020036,0,0,2803.2,0.0,0.020036,0,0,2803.2,0.0,0.020036,0,0,2803.2,0.0,0.020036,0,0,2803.2,0.0
1682444857179719656,,1682444857,178843931,,0.020004,0,0,2803.2,0.0,0.020004,0,0,2803.2,0.0,0.020004,0,0,2803.2,0.0,0.020004,0,0,2803.2,0.0
1682444857199993831,,1682444857,199279270,,0.020036,0,0,2803.2,0.0,0.020036,0,0,2803.2,0.0,0.020036,0,0,2803.2,0.0,0.020036,0,0,2803.2,0.0
1682444857220584686,,1682444857,219844291,,0.020004,0,0,2803.2,0.0,0.020004,0,0,2803.2,0.0,0.020004,0,0,2803.2,0.0,0.020004,0,0,2803.2,0.0
1682444857240755918,,1682444857,240254908,,0.020036,0,0,2803.2,0.0,0.020036,0,0,2803.2,0.0,0.020036,0,0,2803.2,0.0,0.020036,0,0,2803.2,0.0
1682444857261306254,,1682444857,260770042,,0.02002,0,0,2803.2,0.0,0.02002,0,0,2803.2,0.0,0.02002,0,0,2803.2,0.0,0.02002,0,0,2803.2,0.0
1682444857277396115,,1682444857,276875865,,0.02002,0,0,2803.2,0.0,0.02002,0,0,2803.2,0.0,0.02002,0,0,2803.2,0.0,0.02002,0,0,2803.2,0.0
1682444857297945470,,1682444857,297417813,,0.02002,0,0,2803.2,0.0,0.02002,0,0,2803.2,0.0,0.02002,0,0,2803.2,0.0,0.02002,0,0,2803.2,0.0
1682444857318322903,,1682444857,317893466,,0.020004,0,0,2803.2,0.0,0.020004,0,0,2803.2,0.0,0.020004,0,0,2803.2,0.0,0.020004,0,0,2803.2,0.0
1682444857339074902,,1682444857,338524005,,0.020036,0,0,2803.2,0.0,0.020036,0,0,2803.2,0.0,0.020036,0,0,2803.2,0.0,0.020036,0,0,2803.2,0.0
1682444857359670460,,1682444857,359056231,,0.02002,0,0,2803.2,0.0,0.02002,0,0,2803.2,0.0,0.02002,0,0,2803.2,0.0,0.02002,0,0,2803.2,0.0
1682444857380189223,,1682444857,379581790,,0.02002,0,0,2803.2,0.0,0.02002,0,0,2803.2,0.0,0.02002,0,0,2803.2,0.0,0.02002,0,0,2803.2,0.0
1682444857400661376,,1682444857,400107423,,0.02002,0,0,2803.2,0.0,0.02002,0,0,2803.2,0.0,0.02002,0,0,2803.2,0.0,0.02002,0,0,2803.2,0.0
1682444857421435802,,1682444857,420690963,,0.020004,0,0,2803.2,0.0,0.020004,0,0,2803.2,0.0,0.020004,0,0,2803.2,0.0,0.020004,0,0,2803.2,0.0
1682444857441367334,,1682444857,440935824,,0.020036,0,0,2803.2,0.0,0.020036,0,0,2803.2,0.0,0.020036,0,0,2803.2,0.0,0.020036,0,0,2803.2,0.0
1682444857457527786,,1682444857,457139256,,0.020024,0,0,2803.2,0.0,0.020024,0,0,2803.2,0.0,0.020024,0,0,2803.2,0.0,0.020024,0,0,2803.2,0.0
1682444857478155436,,1682444857,477690815,,0.02002,0,0,2803.2,0.0,0.02002,0,0,2803.2,0.0,0.02002,0,0,2803.2,0.0,0.02002,0,0,2803.2,0.0
1682444857498697607,,1682444857,498209208,,0.020036,0,0,2803.2,0.0,0.020036,0,0,2803.2,0.0,0.020036,0,0,2803.2,0.0,0.020036,0,0,2803.2,0.0
1682444857519203111,,1682444857,518729212,,0.020024,0,0,2803.2,0.0,0.020024,0,0,2803.2,0.0,0.020024,0,0,2803.2,0.0,0.020024,0,0,2803.2,0.0
1682444857539745022,,1682444857,539249253,,0.020036,0,0,2803.2,0.0,0.020036,0,0,2803.2,0.0,0.020036,0,0,2803.2,0.0,0.020036,0,0,2803.2,0.0
1682444857560203063,,1682444857,559749738,,0.020004,0,0,2803.2,0.0,0.020004,0,0,2803.2,0.0,0.020004,0,0,2803.2,0.0,0.020004,0,0,2803.2,0.0
1682444857580659624,,1682444857,580260835,,0.02002,0,0,2803.2,0.0,0.02002,0,0,2803.2,0.0,0.02002,0,0,2803.2,0.0,0.02002,0,0,2803.2,0.0
1682444857601125721,,1682444857,600692988,,0.02002,0,0,2803.2,0.0,0.02002,0,0,2803.2,0.0,0.02002,0,0,2803.2,0.0,0.02002,0,0,2803.2,0.0
1682444857621627911,,1682444857,621188363,,0.02002,0,0,2803.2,0.0,0.02002,0,0,2803.2,0.0,0.02002,0,0,2803.2,0.0,0.02002,0,0,2803.2,0.0
1682444857637841973,,1682444857,637375981,,0.020056,0,0,2803.2,0.0,0.020056,0,0,2803.2,0.0,0.020056,0,0,2803.2,0.0,0.020056,0,0,2803.2,0.0
1682444857658539196,,1682444857,657941632,,0.020004,0,0,2803.2,0.0,0.020004,0,0,2803.2,0.0,0.020004,0,0,2803.2,0.0,0.020004,0,0,2803.2,0.0
1682444857678888906,,1682444857,678418656,,0.020036,0,0,2803.2,0.0,0.020036,0,0,2803.2,0.0,0.020036,0,0,2803.2,0.0,0.020036,0,0,2803.2,0.0
1682444857699416632,,1682444857,698931030,,0.020024,0,0,2803.2,0.0,0.020024,0,0,2803.2,0.0,0.020024,0,0,2803.2,0.0,0.020024,0,0,2803.2,0.0
1682444857719996302,,1682444857,719467311,,0.02002,0,0,2803.2,0.0,0.02002,0,0,2803.2,0.0,0.02002,0,0,2803.2,0.0,0.02002,0,0,2803.2,0.0
1682444857740595100,,1682444857,740010370,,0.02002,0,0,2803.2,0.0,0.02002,0,0,2803.2,0.0,0.02002,0,0,2803.2,0.0,0.02002,0,0,2803.2,0.0
1682444857761046976,,1682444857,760513522,,0.020036,0,0,2803.2,0.0,0.020036,0,0,2803.2,0.0,0.020036,0,0,2803.2,0.0,0.020036,0,0,2803.2,0.0
1682444857781560795,,1682444857,781004545,,0.020004,0,0,2803.2,0.0,0.020004,0,0,2803.2,0.0,0.020004,0,0,2803.2,0.0,0.020004,0,0,2803.2,0.0
1682444857797549787,,1682444857,797071721,,0.020036,0,0,2803.2,0.0,0.020036,0,0,2803.2,0.0,0.020036,0,0,2803.2,0.0,0.020036,0,0,2803.2,0.0
1682444857817973700,,1682444857,817533152,,0.02004,0,0,2803.2,0.0,0.02004,0,0,2803.2,0.0,0.02004,0,0,2803.2,0.0,0.02004,0,0,2803.2,0.0
1682444857838519259,,1682444857,838093692,,0.020024,0,0,2803.2,0.0,0.020024,0,0,2803.2,0.0,0.020024,0,0,2803.2,0.0,0.020024,0,0,2803.2,0.0
1682444857858945801,,1682444857,858542401,,0.020036,0,0,2803.2,0.0,0.020036,0,0,2803.2,0.0,0.020036,0,0,2803.2,0.0,0.020036,0,0,2803.2,0.0
1682444857879548952,,1682444857,879123737,,0.020024,0,0,2803.2,0.0,0.020024,0,0,2803.2,0.0,0.020024,0,0,2803.2,0.0,0.020024,0,0,2803.2,0.0
1682444857900000623,,1682444857,899596464,,0.020036,0,0,2803.2,0.0,0.020036,0,0,2803.2,0.0,0.020036,0,0,2803.2,0.0,0.020036,0,0,2803.2,0.0
1682444857920582700,,1682444857,920155523,,0.020004,0,0,2803.2,0.0,0.020004,0,0,2803.2,0.0,0.020004,0,0,2803.2,0.0,0.020004,0,0,2803.2,0.0
1682444857941393032,,1682444857,940723785,,0.020036,0,0,2803.2,0.0,0.020036,0,0,2803.2,0.0,0.020036,0,0,2803.2,0.0,0.020036,0,0,2803.2,0.0
1682444857961904814,,1682444857,961212123,,0.02002,0,0,2803.2,0.0,0.02002,0,0,2803.2,0.0,0.02002,0,0,2803.2,0.0,0.02002,0,0,2803.2,0.0
1682444857977961009,,1682444857,977332779,,0.020004,0,0,2803.2,0.0,0.020004,0,0,2803.2,0.0,0.020004,0,0,2803.2,0.0,0.020004,0,0,2803.2,0.0
1682444857999212166,,1682444857,997938837,,0.020036,0,0,2803.2,0.0,0.020036,0,0,2803.2,0.0,0.020036,0,0,2803.2,0.0,0.020036,0,0,2803.2,0.0
1682444858018885796,,1682444858,18343047,,0.02002,0,0,2803.2,0.0,0.02002,0,0,2803.2,0.0,0.02002,0,0,2803.2,0.0,0.02002,0,0,2803.2,0.0
1682444858039240377,,1682444858,38814273,,0.020024,0,0,2803.2,0.0,0.020024,0,0,2803.2,0.0,0.020024,0,0,2803.2,0.0,0.020024,0,0,2803.2,0.0
1682444858059728622,,1682444858,59334129,,0.020016,0,0,2803.2,0.0,0.020016,0,0,2803.2,0.0,0.020016,0,0,2803.2,0.0,0.020016,0,0,2803.2,0.0
1682444858080494992,,1682444858,79943224,,0.020024,0,0,2803.2,0.0,0.020024,0,0,2803.2,0.0,0.020024,0,0,2803.2,0.0,0.020024,0,0,2803.2,0.0
1682444858100941016,,1682444858,100452395,,0.020016,0,0,2803.2,0.0,0.020016,0,0,2803.2,0.0,0.020016,0,0,2803.2,0.0,0.020016,0,0,2803.2,0.0
1682444858121881030,,1682444858,121013916,,0.020004,0,0,2803.2,0.0,0.020004,0,0,2803.2,0.0,0.020004,0,0,2803.2,0.0,0.020004,0,0,2803.2,0.0
1682444858142097132,,1682444858,141445866,,0.020016,0,0,2803.2,0.0,0.020016,0,0,2803.2,0.0,0.020016,0,0,2803.2,0.0,0.020016,0,0,2803.2,0.0
1682444858160251586,,1682444858,157843814,,0.02002,0,0,2803.2,0.0,0.02002,0,0,2803.2,0.0,0.02002,0,0,2803.2,0.0,0.02002,0,0,2803.2,0.0
1682444858178652572,,1682444858,178047768,,0.020024,0,0,2803.2,0.0,0.020024,0,0,2803.2,0.0,0.020024,0,0,2803.2,0.0,0.020024,0,0,2803.2,0.0
1682444858199008671,,1682444858,198516921,,0.020036,0,0,2803.2,0.0,0.020036,0,0,2803.2,0.0,0.020036,0,0,2803.2,0.0,0.020036,0,0,2803.2,0.0
1682444858219534582,,1682444858,219060739,,0.020024,0,0,2803.2,0.0,0.020024,0,0,2803.2,0.0,0.020024,0,0,2803.2,0.0,0.020024,0,0,2803.2,0.0
1682444858239968995,,1682444858,239537966,,0.020016,0,0,2803.2,0.0,0.020016,0,0,2803.2,0.0,0.020016,0,0,2803.2,0.0,0.020016,0,0,2803.2,0.0
1682444858260648237,,1682444858,260131931,,0.020004,0,0,2803.2,0.0,0.020004,0,0,2803.2,0.0,0.020004,0,0,2803.2,0.0,0.020004,0,0,2803.2,0.0
1682444858281329127,,1682444858,280706749,,0.02002,0,0,2803.2,0.0,0.02002,0,0,2803.2,0.0,0.02002,0,0,2803.2,0.0,0.02002,0,0,2803.2,0.0
1682444858302576562,,1682444858,302015220,,0.020016,0,0,2803.2,0.0,0.020016,0,0,2803.2,0.0,0.020016,0,0,2803.2,0.0,0.020016,0,0,2803.2,0.0
1682444858322430115,,1682444858,321676313,,0.020024,0,0,2803.2,0.0,0.020024,0,0,2803.2,0.0,0.020024,0,0,2803.2,0.0,0.020024,0,0,2803.2,0.0
1682444858338088613,,1682444858,337683842,,0.02002,0,0,2803.2,0.0,0.02002,0,0,2803.2,0.0,0.02002,0,0,2803.2,0.0,0.02002,0,0,2803.2,0.0
1682444858358623616,,1682444858,358221364,,0.020016,0,0,2803.2,0.0,0.020016,0,0,2803.2,0.0,0.020016,0,0,2803.2,0.0,0.020016,0,0,2803.2,0.0
1682444858379148953,,1682444858,378743109,,0.02002,0,0,2803.2,0.0,0.02002,0,0,2803.2,0.0,0.02002,0,0,2803.2,0.0,0.02002,0,0,2803.2,0.0
1682444858399724456,,1682444858,399263131,,0.02002,0,0,2803.2,0.0,0.02002,0,0,2803.2,0.0,0.02002,0,0,2803.2,0.0,0.02002,0,0,2803.2,0.0
1682444858420191757,,1682444858,419775783,,0.020024,0,0,2803.2,0.0,0.020024,0,0,2803.2,0.0,0.020024,0,0,2803.2,0.0,0.020024,0,0,2803.2,0.0
1682444858440762038,,1682444858,440309805,,0.02002,0,0,2803.2,0.0,0.02002,0,0,2803.2,0.0,0.02002,0,0,2803.2,0.0,0.02002,0,0,2803.2,0.0
1682444858461338152,,1682444858,460850587,,0.020016,0,0,2803.2,0.0,0.020016,0,0,2803.2,0.0,0.020016,0,0,2803.2,0.0,0.020016,0,0,2803.2,0.0
1682444858481885544,,1682444858,481389183,,0.020004,0,0,2803.2,0.0,0.020004,0,0,2803.2,0.0,0.020004,0,0,2803.2,0.0,0.020004,0,0,2803.2,0.0
1682444858498188753,,1682444858,497633244,,0.02002,0,0,2803.2,0.0,0.02002,0,0,2803.2,0.0,0.02002,0,0,2803.2,0.0,0.02002,0,0,2803.2,0.0
1682444858518433391,,1682444858,517952085,,0.020036,0,0,2803.2,0.0,0.020036,0,0,2803.2,0.0,0.020036,0,0,2803.2,0.0,0.020036,0,0,2803.2,0.0
1682444858539157558,,1682444858,538464441,,0.020004,0,0,2803.2,0.0,0.020004,0,0,2803.2,0.0,0.020004,0,0,2803.2,0.0,0.020004,0,0,2803.2,0.0
1682444858559414122,,1682444858,559005074,,0.020016,0,0,2803.2,0.0,0.020016,0,0,2803.2,0.0,0.020016,0,0,2803.2,0.0,0.020016,0,0,2803.2,0.0
1682444858580023365,,1682444858,579549855,,0.020004,0,0,2803.2,0.0,0.020004,0,0,2803.2,0.0,0.020004,0,0,2803.2,0.0,0.020004,0,0,2803.2,0.0
1682444858600392261,,1682444858,600002194,,0.02002,0,0,2803.2,0.0,0.02002,0,0,2803.2,0.0,0.02002,0,0,2803.2,0.0,0.02002,0,0,2803.2,0.0
1682444858620994707,,1682444858,620554530,,0.02002,0,0,2803.2,0.0,0.02002,0,0,2803.2,0.0,0.02002,0,0,2803.2,0.0,0.02002,0,0,2803.2,0.0
1682444858641583432,,1682444858,641045238,,0.02002,0,0,2803.2,0.0,0.02002,0,0,2803.2,0.0,0.02002,0,0,2803.2,0.0,0.02002,0,0,2803.2,0.0
1682444858664027568,,1682444858,661622222,,0.02002,0,0,2803.2,0.0,0.02002,0,0,2803.2,0.0,0.02002,0,0,2803.2,0.0,0.02002,0,0,2803.2,0.0
1682444858678169594,,1682444858,677677676,,0.020016,0,0,2803.2,0.0,0.020016,0,0,2803.2,0.0,0.020016,0,0,2803.2,0.0,0.020016,0,0,2803.2,0.0
1682444858699258569,,1682444858,698294771,,0.020004,0,0,2803.2,0.0,0.020004,0,0,2803.2,0.0,0.020004,0,0,2803.2,0.0,0.020004,0,0,2803.2,0.0
1682444858719110640,,1682444858,718655296,,0.020016,0,0,2803.2,0.0,0.020016,0,0,2803.2,0.0,0.020016,0,0,2803.2,0.0,0.020016,0,0,2803.2,0.0
1682444858739621311,,1682444858,739188485,,0.020004,0,0,2803.2,0.0,0.020004,0,0,2803.2,0.0,0.020004,0,0,2803.2,0.0,0.020004,0,0,2803.2,0.0
1682444858760204758,,1682444858,759739803,,0.020036,0,0,2803.2,0.0,0.020036,0,0,2803.2,0.0,0.020036,0,0,2803.2,0.0,0.020036,0,0,2803.2,0.0
1682444858780684799,,1682444858,780235030,,0.020004,0,0,2803.2,0.0,0.020004,0,0,2803.2,0.0,0.020004,0,0,2803.2,0.0,0.020004,0,0,2803.2,0.0
1682444858801210785,,1682444858,800760163,,0.02002,0,0,2803.2,0.0,0.02002,0,0,2803.2,0.0,0.02002,0,0,2803.2,0.0,0.02002,0,0,2803.2,0.0
1682444858821653234,,1682444858,821226057,,0.020036,0,0,2803.2,0.0,0.020036,0,0,2803.2,0.0,0.020036,0,0,2803.2,0.0,0.020036,0,0,2803.2,0.0
1682444858842310532,,1682444858,841739653,,0.02002,0,0,2803.2,0.0,0.02002,0,0,2803.2,0.0,0.02002,0,0,2803.2,0.0,0.02002,0,0,2803.2,0.0
1682444858858390745,,1682444858,857897383,,0.020004,0,0,2803.2,0.0,0.020004,0,0,2803.2,0.0,0.020004,0,0,2803.2,0.0,0.020004,0,0,2803.2,0.0
1682444858879054635,,1682444858,878481386,,0.02002,0,0,2803.2,0.0,0.02002,0,0,2803.2,0.0,0.02002,0,0,2803.2,0.0,0.02002,0,0,2803.2,0.0
1682444858899529917,,1682444858,898965150,,0.020016,0,0,2803.2,0.0,0.020016,0,0,2803.2,0.0,0.020016,0,0,2803.2,0.0,0.020016,0,0,2803.2,0.0
1682444858920168863,,1682444858,919501394,,0.020004,0,0,2803.2,0.0,0.020004,0,0,2803.2,0.0,0.020004,0,0,2803.2,0.0,0.020004,0,0,2803.2,0.0
1682444858940452945,,1682444858,939972250,,0.020036,0,0,2803.2,0.0,0.020036,0,0,2803.2,0.0,0.020036,0,0,2803.2,0.0,0.020036,0,0,2803.2,0.0
1682444858960955431,,1682444858,960514124,,0.02002,0,0,2803.2,0.0,0.02002,0,0,2803.2,0.0,0.02002,0,0,2803.2,0.0,0.02002,0,0,2803.2,0.0
1682444858981555841,,1682444858,981038369,,0.020024,0,0,2803.2,0.0,0.020024,0,0,2803.2,0.0,0.020024,0,0,2803.2,0.0,0.020024,0,0,2803.2,0.0
1682444859002081956,,1682444859,1565465,,0.020016,0,0,2803.2,0.0,0.020016,0,0,2803.2,0.0,0.020016,0,0,2803.2,0.0,0.020016,0,0,2803.2,0.0
1682444859018054763,,1682444859,17592679,,0.020024,0,0,2803.2,0.0,0.020024,0,0,2803.2,0.0,0.020024,0,0,2803.2,0.0,0.020024,0,0,2803.2,0.0
1682444859038511231,,1682444859,38088294,,0.02002,0,0,2803.2,0.0,0.02002,0,0,2803.2,0.0,0.02002,0,0,2803.2,0.0,0.02002,0,0,2803.2,0.0
1682444859058994735,,1682444859,58595224,,0.020016,0,0,2803.2,0.0,0.020016,0,0,2803.2,0.0,0.020016,0,0,2803.2,0.0,0.020016,0,0,2803.2,0.0
1682444859079639867,,1682444859,79161079,,0.02002,0,0,2803.2,0.0,0.02002,0,0,2803.2,0.0,0.02002,0,0,2803.2,0.0,0.02002,0,0,2803.2,0.0
1682444859100088687,,1682444859,99654824,,0.020004,0,0,2803.2,0.0,0.020004,0,0,2803.2,0.0,0.020004,0,0,2803.2,0.0,0.020004,0,0,2803.2,0.0
1682444859120591561,,1682444859,120178254,,0.020036,0,0,2803.2,0.0,0.020036,0,0,2803.2,0.0,0.020036,0,0,2803.2,0.0,0.020036,0,0,2803.2,0.0
1682444859141198360,,1682444859,140708813,,0.020004,0,0,2803.2,0.0,0.020004,0,0,2803.2,0.0,0.020004,0,0,2803.2,0.0,0.020004,0,0,2803.2,0.0
1682444859161959081,,1682444859,161250057,,0.02002,0,0,2803.2,0.0,0.02002,0,0,2803.2,0.0,0.02002,0,0,2803.2,0.0,0.02002,0,0,2803.2,0.0
1682444859182320681,,1682444859,181669470,,0.020036,0,0,2803.2,0.0,0.020036,0,0,2803.2,0.0,0.020036,0,0,2803.2,0.0,0.020036,0,0,2803.2,0.0
1682444859198448763,,1682444859,197889514,,0.020024,0,0,2803.2,0.0,0.020024,0,0,2803.2,0.0,0.020024,0,0,2803.2,0.0,0.020024,0,0,2803.2,0.0
1682444859218815029,,1682444859,218331852,,0.020036,0,0,2803.2,0.0,0.020036,0,0,2803.2,0.0,0.020036,0,0,2803.2,0.0,0.020036,0,0,2803.2,0.0
1682444859239327496,,1682444859,238844986,,0.02002,0,0,2803.2,0.0,0.02002,0,0,2803.2,0.0,0.02002,0,0,2803.2,0.0,0.02002,0,0,2803.2,0.0
1682444859259790908,,1682444859,259358545,,0.02002,0,0,2803.2,0.0,0.02002,0,0,2803.2,0.0,0.02002,0,0,2803.2,0.0,0.02002,0,0,2803.2,0.0
1682444859280494020,,1682444859,280001954,,0.020024,0,0,2803.2,0.0,0.020024,0,0,2803.2,0.0,0.020024,0,0,2803.2,0.0,0.020024,0,0,2803.2,0.0
1682444859300943802,,1682444859,300435774,,0.020016,0,0,2803.2,0.0,0.020016,0,0,2803.2,0.0,0.020016,0,0,2803.2,0.0,0.020016,0,0,2803.2,0.0
1682444859321572897,,1682444859,320922408,,0.02002,0,0,2803.2,0.0,0.02002,0,0,2803.2,0.0,0.02002,0,0,2803.2,0.0,0.02002,0,0,2803.2,0.0
1682444859342158381,,1682444859,341426172,,0.020004,0,0,2803.2,0.0,0.020004,0,0,2803.2,0.0,0.020004,0,0,2803.2,0.0,0.020004,0,0,2803.2,0.0
1682444859363630053,,1682444859,362046266,,0.020016,0,0,2803.2,0.0,0.020016,0,0,2803.2,0.0,0.020016,0,0,2803.2,0.0,0.020016,0,0,2803.2,0.0
1682444859378708099,,1682444859,378056073,,0.020004,0,0,2803.2,0.0,0.020004,0,0,2803.2,0.0,0.020004,0,0,2803.2,0.0,0.020004,0,0,2803.2,0.0
1682444859399331193,,1682444859,398635039,,0.02002,0,0,2803.2,0.0,0.02002,0,0,2803.2,0.0,0.02002,0,0,2803.2,0.0,0.02002,0,0,2803.2,0.0
1682444859419612072,,1682444859,419053044,,0.020036,0,0,2803.2,0.0,0.020036,0,0,2803.2,0.0,0.020036,0,0,2803.2,0.0,0.020036,0,0,2803.2,0.0
1682444859440156593,,1682444859,439616196,,0.02002,0,0,2803.2,0.0,0.02002,0,0,2803.2,0.0,0.02002,0,0,2803.2,0.0,0.02002,0,0,2803.2,0.0
1682444859460626135,,1682444859,460149662,,0.020004,0,0,2803.2,0.0,0.020004,0,0,2803.2,0.0,0.020004,0,0,2803.2,0.0,0.020004,0,0,2803.2,0.0
1682444859481359524,,1682444859,480653185,,0.020036,0,0,2803.2,0.0,0.020036,0,0,2803.2,0.0,0.020036,0,0,2803.2,0.0,0.020036,0,0,2803.2,0.0
1682444859501704161,,1682444859,501206466,,0.020024,0,0,2803.2,0.0,0.020024,0,0,2803.2,0.0,0.020024,0,0,2803.2,0.0,0.020024,0,0,2803.2,0.0
1682444859522072927,,1682444859,521578139,,0.020036,0,0,2803.2,0.0,0.020036,0,0,2803.2,0.0,0.020036,0,0,2803.2,0.0,0.020036,0,0,2803.2,0.0
1682444859538140899,,1682444859,537717777,,0.020004,0,0,2803.2,0.0,0.020004,0,0,2803.2,0.0,0.020004,0,0,2803.2,0.0,0.020004,0,0,2803.2,0.0
1682444859558673180,,1682444859,558255762,,0.02002,0,0,2803.2,0.0,0.02002,0,0,2803.2,0.0,0.02002,0,0,2803.2,0.0,0.02002,0,0,2803.2,0.0
1682444859579285108,,1682444859,578787302,,0.020016,0,0,2803.2,0.0,0.020016,0,0,2803.2,0.0,0.020016,0,0,2803.2,0.0,0.020016,0,0,2803.2,0.0
1682444859599803316,,1682444859,599307102,,0.020004,0,0,2803.2,0.0,0.020004,0,0,2803.2,0.0,0.020004,0,0,2803.2,0.0,0.020004,0,0,2803.2,0.0
1682444859620303005,,1682444859,619835069,,0.020016,0,0,2803.2,0.0,0.020016,0,0,2803.2,0.0,0.020016,0,0,2803.2,0.0,0.020016,0,0,2803.2,0.0
1682444859640835583,,1682444859,640354425,,0.020004,0,0,2803.2,0.0,0.020004,0,0,2803.2,0.0,0.020004,0,0,2803.2,0.0,0.020004,0,0,2803.2,0.0
1682444859661688599,,1682444859,661031315,,0.020036,0,0,2803.2,0.0,0.020036,0,0,2803.2,0.0,0.020036,0,0,2803.2,0.0,0.020036,0,0,2803.2,0.0
1682444859681777944,,1682444859,681299582,,0.020004,0,0,2803.2,0.0,0.020004,0,0,2803.2,0.0,0.020004,0,0,2803.2,0.0,0.020004,0,0,2803.2,0.0
1682444859702315596,,1682444859,701773031,,0.020016,0,0,2803.2,0.0,0.020016,0,0,2803.2,0.0,0.020016,0,0,2803.2,0.0,0.020016,0,0,2803.2,0.0
1682444859718323291,,1682444859,717901910,,0.02002,0,0,2803.2,0.0,0.02002,0,0,2803.2,0.0,0.02002,0,0,2803.2,0.0,0.02002,0,0,2803.2,0.0
1682444859739108198,,1682444859,738570467,,0.020024,0,0,2803.2,0.0,0.020024,0,0,2803.2,0.0,0.020024,0,0,2803.2,0.0,0.020024,0,0,2803.2,0.0
1682444859759462038,,1682444859,758967121,,0.02002,0,0,2803.2,0.0,0.02002,0,0,2803.2,0.0,0.02002,0,0,2803.2,0.0,0.02002,0,0,2803.2,0.0
1682444859780049429,,1682444859,779534179,,0.020016,0,0,2803.2,0.0,0.020016,0,0,2803.2,0.0,0.020016,0,0,2803.2,0.0,0.020016,0,0,2803.2,0.0
1682444859800669931,,1682444859,800108645,,0.020024,0,0,2803.2,0.0,0.020024,0,0,2803.2,0.0,0.020024,0,0,2803.2,0.0,0.020024,0,0,2803.2,0.0
1682444859821202491,,1682444859,820597242,,0.02002,0,0,2803.2,0.0,0.02002,0,0,2803.2,0.0,0.02002,0,0,2803.2,0.0,0.02002,0,0,2803.2,0.0
1682444859841634922,,1682444859,841106820,,0.020036,0,0,2803.2,0.0,0.020036,0,0,2803.2,0.0,0.020036,0,0,2803.2,0.0,0.020036,0,0,2803.2,0.0
1682444859862134500,,1682444859,861579714,,0.020004,0,0,2803.2,0.0,0.020004,0,0,2803.2,0.0,0.020004,0,0,2803.2,0.0,0.020004,0,0,2803.2,0.0
1682444859882422990,,1682444859,881977127,,0.02002,0,0,2803.2,0.0,0.02002,0,0,2803.2,0.0,0.02002,0,0,2803.2,0.0,0.02002,0,0,2803.2,0.0
1682444859898722069,,1682444859,898191967,,0.020036,0,0,2803.2,0.0,0.020036,0,0,2803.2,0.0,0.020036,0,0,2803.2,0.0,0.020036,0,0,2803.2,0.0
1682444859919105316,,1682444859,918664342,,0.020004,0,0,2803.2,0.0,0.020004,0,0,2803.2,0.0,0.020004,0,0,2803.2,0.0,0.020004,0,0,2803.2,0.0
1682444859939799557,,1682444859,939247308,,0.020036,0,0,2803.2,0.0,0.020036,0,0,2803.2,0.0,0.020036,0,0,2803.2,0.0,0.020036,0,0,2803.2,0.0
1682444859960354653,,1682444859,959803478,,0.02002,0,0,2803.2,0.0,0.02002,0,0,2803.2,0.0,0.02002,0,0,2803.2,0.0,0.02002,0,0,2803.2,0.0
1682444859980866750,,1682444859,980300278,,0.020004,0,0,2803.2,0.0,0.020004,0,0,2803.2,0.0,0.020004,0,0,2803.2,0.0,0.020004,0,0,2803.2,0.0
1682444860001477178,,1682444860,859041,,0.020016,0,0,2803.2,0.0,0.020016,0,0,2803.2,0.0,0.020016,0,0,2803.2,0.0,0.020016,0,0,2803.2,0.0
1682444860021998163,,1682444860,21387156,,0.020004,0,0,2803.2,0.0,0.020004,0,0,2803.2,0.0,0.020004,0,0,2803.2,0.0,0.020004,0,0,2803.2,0.0
1682444860042245579,,1682444860,41729588,,0.020016,0,0,2803.2,0.0,0.020016,0,0,2803.2,0.0,0.020016,0,0,2803.2,0.0,0.020016,0,0,2803.2,0.0
1682444860058382143,,1682444860,57925040,,0.02002,0,0,2803.2,0.0,0.02002,0,0,2803.2,0.0,0.02002,0,0,2803.2,0.0,0.02002,0,0,2803.2,0.0
1682444860078922387,,1682444860,78437433,,0.02002,0,0,2803.2,0.0,0.02002,0,0,2803.2,0.0,0.02002,0,0,2803.2,0.0,0.02002,0,0,2803.2,0.0
1682444860099349448,,1682444860,98932548,,0.02002,0,0,2803.2,0.0,0.02002,0,0,2803.2,0.0,0.02002,0,0,2803.2,0.0,0.02002,0,0,2803.2,0.0
1682444860119915766,,1682444860,119471737,,0.020004,0,0,2803.2,0.0,0.020004,0,0,2803.2,0.0,0.020004,0,0,2803.2,0.0,0.020004,0,0,2803.2,0.0
1682444860140474547,,1682444860,139974167,,0.020016,0,0,2803.2,0.0,0.020016,0,0,2803.2,0.0,0.020016,0,0,2803.2,0.0,0.020016,0,0,2803.2,0.0
1682444860161285953,,1682444860,160585151,,0.020004,0,0,2803.2,0.0,0.020004,0,0,2803.2,0.0,0.020004,0,0,2803.2,0.0,0.020004,0,0,2803.2,0.0
1682444860181698699,,1682444860,181069785,,0.020016,0,0,2803.2,0.0,0.020016,0,0,2803.2,0.0,0.020016,0,0,2803.2,0.0,0.020016,0,0,2803.2,0.0
1682444860202318831,,1682444860,201578585,,0.020024,0,0,2803.2,0.0,0.020024,0,0,2803.2,0.0,0.020024,0,0,2803.2,0.0,0.020024,0,0,2803.2,0.0
1682444860222542988,,1682444860,222007276,,0.020016,0,0,2803.2,0.0,0.020016,0,0,2803.2,0.0,0.020016,0,0,2803.2,0.0,0.020016,0,0,2803.2,0.0
1682444860238552332,,1682444860,238111303,,0.02002,0,0,2803.2,0.0,0.02002,0,0,2803.2,0.0,0.02002,0,0,2803.2,0.0,0.02002,0,0,2803.2,0.0
1682444860259029466,,1682444860,258611955,,0.020024,0,0,2803.2,0.0,0.020024,0,0,2803.2,0.0,0.020024,0,0,2803.2,0.0,0.020024,0,0,2803.2,0.0
1682444860279555396,,1682444860,279136477,,0.020016,0,0,2803.2,0.0,0.020016,0,0,2803.2,0.0,0.020016,0,0,2803.2,0.0,0.020016,0,0,2803.2,0.0
1682444860300097455,,1682444860,299666111,,0.02002,0,0,2803.2,0.0,0.02002,0,0,2803.2,0.0,0.02002,0,0,2803.2,0.0,0.02002,0,0,2803.2,0.0
1682444860320613070,,1682444860,320180577,,0.020004,0,0,2803.2,0.0,0.020004,0,0,2803.2,0.0,0.020004,0,0,2803.2,0.0,0.020004,0,0,2803.2,0.0
1682444860341340885,,1682444860,340750747,,0.020016,0,0,2803.2,0.0,0.020016,0,0,2803.2,0.0,0.020016,0,0,2803.2,0.0,0.020016,0,0,2803.2,0.0
1682444860361971016,,1682444860,361290621,,0.020004,0,0,2803.2,0.0,0.020004,0,0,2803.2,0.0,0.020004,0,0,2803.2,0.0,0.020004,0,0,2803.2,0.0
1682444860382518668,,1682444860,381777996,,0.02002,0,0,2803.2,0.0,0.02002,0,0,2803.2,0.0,0.02002,0,0,2803.2,0.0,0.02002,0,0,2803.2,0.0
1682444860398549511,,1682444860,397957596,,0.020016,0,0,2803.2,0.0,0.020016,0,0,2803.2,0.0,0.020016,0,0,2803.2,0.0,0.020016,0,0,2803.2,0.0
1682444860419253586,,1682444860,418715132,,0.020024,0,0,2803.2,0.0,0.020024,0,0,2803.2,0.0,0.020024,0,0,2803.2,0.0,0.020024,0,0,2803.2,0.0
1682444860439259599,,1682444860,438837699,,0.02004,0,0,2803.2,0.0,0.02004,0,0,2803.2,0.0,0.02004,0,0,2803.2,0.0,0.02004,0,0,2803.2,0.0
1682444860459744214,,1682444860,459340073,,0.02002,0,0,2803.2,0.0,0.02002,0,0,2803.2,0.0,0.02002,0,0,2803.2,0.0,0.02002,0,0,2803.2,0.0
1682444860480388068,,1682444860,479908595,,0.020016,0,0,2803.2,0.0,0.020016,0,0,2803.2,0.0,0.020016,0,0,2803.2,0.0,0.020016,0,0,2803.2,0.0
1682444860501022384,,1682444860,500442320,,0.02002,0,0,2803.2,0.0,0.02002,0,0,2803.2,0.0,0.02002,0,0,2803.2,0.0,0.02002,0,0,2803.2,0.0
1682444860521462223,,1682444860,520916177,,0.020004,0,0,2803.2,0.0,0.020004,0,0,2803.2,0.0,0.020004,0,0,2803.2,0.0,0.020004,0,0,2803.2,0.0
1682444860542135798,,1682444860,541485976,,0.020016,0,0,2803.2,0.0,0.020016,0,0,2803.2,0.0,0.020016,0,0,2803.2,0.0,0.020016,0,0,2803.2,0.0
1682444860562432176,,1682444860,561944389,,0.020024,0,0,2803.2,0.0,0.020024,0,0,2803.2,0.0,0.020024,0,0,2803.2,0.0,0.020024,0,0,2803.2,0.0
1682444860579910012,,1682444860,579343633,,0.02002,0,0,2803.2,0.0,0.02002,0,0,2803.2,0.0,0.02002,0,0,2803.2,0.0,0.02002,0,0,2803.2,0.0
1682444860599231593,,1682444860,598635548,,0.020036,0,0,2803.2,0.0,0.020036,0,0,2803.2,0.0,0.020036,0,0,2803.2,0.0,0.020036,0,0,2803.2,0.0
1682444860619661598,,1682444860,619091831,,0.020004,0,0,2803.2,0.0,0.020004,0,0,2803.2,0.0,0.020004,0,0,2803.2,0.0,0.020004,0,0,2803.2,0.0
1682444860640023716,,1682444860,639563058,,0.020016,0,0,2803.2,0.0,0.020016,0,0,2803.2,0.0,0.020016,0,0,2803.2,0.0,0.020016,0,0,2803.2,0.0
1682444860660866140,,1682444860,660179300,,0.020004,0,0,2803.2,0.0,0.020004,0,0,2803.2,0.0,0.020004,0,0,2803.2,0.0,0.020004,0,0,2803.2,0.0
1682444860681121982,,1682444860,680656250,,0.02002,0,0,2803.2,0.0,0.02002,0,0,2803.2,0.0,0.02002,0,0,2803.2,0.0,0.02002,0,0,2803.2,0.0
1682444860701656597,,1682444860,701176476,,0.020016,0,0,2803.2,0.0,0.020016,0,0,2803.2,0.0,0.020016,0,0,2803.2,0.0,0.020016,0,0,2803.2,0.0
1682444860722909828,,1682444860,722323116,,0.020024,0,0,2803.2,0.0,0.020024,0,0,2803.2,0.0,0.020024,0,0,2803.2,0.0,0.020024,0,0,2803.2,0.0
1682444860742736141,,1682444860,742132485,,0.02002,0,0,2803.2,0.0,0.02002,0,0,2803.2,0.0,0.02002,0,0,2803.2,0.0,0.02002,0,0,2803.2,0.0
1682444860759059386,,1682444860,758366398,,0.020016,0,0,2803.2,0.0,0.020016,0,0,2803.2,0.0,0.020016,0,0,2803.2,0.0,0.020016,0,0,2803.2,0.0
1682444860779397004,,1682444860,778839329,,0.020004,0,0,2803.2,0.0,0.020004,0,0,2803.2,0.0,0.020004,0,0,2803.2,0.0,0.020004,0,0,2803.2,0.0
1682444860799790066,,1682444860,799302334,,0.020016,0,0,2803.2,0.0,0.020016,0,0,2803.2,0.0,0.020016,0,0,2803.2,0.0,0.020016,0,0,2803.2,0.0
1682444860820292181,,1682444860,819817541,,0.020024,0,0,2803.2,0.0,0.020024,0,0,2803.2,0.0,0.020024,0,0,2803.2,0.0,0.020024,0,0,2803.2,0.0
1682444860840770815,,1682444860,840338101,,0.020016,0,0,2803.2,0.0,0.020016,0,0,2803.2,0.0,0.020016,0,0,2803.2,0.0,0.020016,0,0,2803.2,0.0
1682444860861263172,,1682444860,860841494,,0.020004,0,0,2803.2,0.0,0.020004,0,0,2803.2,0.0,0.020004,0,0,2803.2,0.0,0.020004,0,0,2803.2,0.0
1682444860881744065,,1682444860,881324517,,0.020036,0,0,2803.2,0.0,0.020036,0,0,2803.2,0.0,0.020036,0,0,2803.2,0.0,0.020036,0,0,2803.2,0.0
1682444860902418992,,1682444860,901943130,,0.020004,0,0,2803.2,0.0,0.020004,0,0,2803.2,0.0,0.020004,0,0,2803.2,0.0,0.020004,0,0,2803.2,0.0
1682444860924259991,,1682444860,923274471,,0.020036,0,0,2803.2,0.0,0.020036,0,0,2803.2,0.0,0.020036,0,0,2803.2,0.0,0.020036,0,0,2803.2,0.0
1682444860939075893,,1682444860,938547921,,0.020024,0,0,2803.2,0.0,0.020024,0,0,2803.2,0.0,0.020024,0,0,2803.2,0.0,0.020024,0,0,2803.2,0.0
1682444860959552675,,1682444860,959031444,,0.020016,0,0,2803.2,0.0,0.020016,0,0,2803.2,0.0,0.020016,0,0,2803.2,0.0,0.020016,0,0,2803.2,0.0
1682444860979998477,,1682444860,979529744,,0.020004,0,0,2803.2,0.0,0.020004,0,0,2803.2,0.0,0.020004,0,0,2803.2,0.0,0.020004,0,0,2803.2,0.0
1682444861000499795,,1682444861,35785,,0.020036,0,0,2803.2,0.0,0.020036,0,0,2803.2,0.0,0.020036,0,0,2803.2,0.0,0.020036,0,0,2803.2,0.0
1682444861021022503,,1682444861,20560882,,0.020024,0,0,2803.2,0.0,0.020024,0,0,2803.2,0.0,0.020024,0,0,2803.2,0.0,0.020024,0,0,2803.2,0.0
1682444861041454119,,1682444861,41031960,,0.020016,0,0,2803.2,0.0,0.020016,0,0,2803.2,0.0,0.020016,0,0,2803.2,0.0,0.020016,0,0,2803.2,0.0
1682444861062105010,,1682444861,61604685,,0.02002,0,0,2803.2,0.0,0.02002,0,0,2803.2,0.0,0.02002,0,0,2803.2,0.0,0.02002,0,0,2803.2,0.0
1682444861083976212,,1682444861,82157966,,0.02002,0,0,2803.2,0.0,0.02002,0,0,2803.2,0.0,0.02002,0,0,2803.2,0.0,0.02002,0,0,2803.2,0.0
1682444861098752689,,1682444861,98244383,,0.02002,0,0,2803.2,0.0,0.02002,0,0,2803.2,0.0,0.02002,0,0,2803.2,0.0,0.02002,0,0,2803.2,0.0
1682444861119307395,,1682444861,118790349,,0.020004,0,0,2803.2,0.0,0.020004,0,0,2803.2,0.0,0.020004,0,0,2803.2,0.0,0.020004,0,0,2803.2,0.0
1682444861139705883,,1682444861,139231280,,0.02002,0,0,2803.2,0.0,0.02002,0,0,2803.2,0.0,0.02002,0,0,2803.2,0.0,0.02002,0,0,2803.2,0.0
1682444861160408902,,1682444861,159843431,,0.02002,0,0,2803.2,0.0,0.02002,0,0,2803.2,0.0,0.02002,0,0,2803.2,0.0,0.02002,0,0,2803.2,0.0
1682444861180752113,,1682444861,180280066,,0.020016,0,0,2803.2,0.0,0.020016,0,0,2803.2,0.0,0.020016,0,0,2803.2,0.0,0.020016,0,0,2803.2,0.0
1682444861201579278,,1682444861,200868957,,0.020024,0,0,2803.2,0.0,0.020024,0,0,2803.2,0.0,0.020024,0,0,2803.2,0.0,0.020024,0,0,2803.2,0.0
1682444861222003191,,1682444861,221382461,,0.020036,0,0,2803.2,0.0,0.020036,0,0,2803.2,0.0,0.020036,0,0,2803.2,0.0,0.020036,0,0,2803.2,0.0
1682444861242703339,,1682444861,241887206,,0.020044,0,0,2803.2,0.0,0.020044,0,0,2803.2,0.0,0.020044,0,0,2803.2,0.0,0.020044,0,0,2803.2,0.0
1682444861262815628,,1682444861,262327804,,0.02002,0,0,2803.2,0.0,0.02002,0,0,2803.2,0.0,0.02002,0,0,2803.2,0.0,0.02002,0,0,2803.2,0.0
1682444861278845157,,1682444861,278420850,,0.020016,0,0,2803.2,0.0,0.020016,0,0,2803.2,0.0,0.020016,0,0,2803.2,0.0,0.020016,0,0,2803.2,0.0
1682444861299263237,,1682444861,298869244,,0.02002,0,0,2803.2,0.0,0.02002,0,0,2803.2,0.0,0.02002,0,0,2803.2,0.0,0.02002,0,0,2803.2,0.0
1682444861319886239,,1682444861,319452598,,0.02002,0,0,2803.2,0.0,0.02002,0,0,2803.2,0.0,0.02002,0,0,2803.2,0.0,0.02002,0,0,2803.2,0.0
1682444861340442631,,1682444861,339971398,,0.02002,0,0,2803.2,0.0,0.02002,0,0,2803.2,0.0,0.02002,0,0,2803.2,0.0,0.02002,0,0,2803.2,0.0
1682444861360957283,,1682444861,360492050,,0.020004,0,0,2803.2,0.0,0.020004,0,0,2803.2,0.0,0.020004,0,0,2803.2,0.0,0.020004,0,0,2803.2,0.0
1682444861381458768,,1682444861,380992851,,0.020016,0,0,2803.2,0.0,0.020016,0,0,2803.2,0.0,0.020016,0,0,2803.2,0.0,0.020016,0,0,2803.2,0.0
1682444861402211675,,1682444861,401574631,,0.020004,0,0,2803.2,0.0,0.020004,0,0,2803.2,0.0,0.020004,0,0,2803.2,0.0,0.020004,0,0,2803.2,0.0
1682444861422646255,,1682444861,422135968,,0.020016,0,0,2803.2,0.0,0.020016,0,0,2803.2,0.0,0.020016,0,0,2803.2,0.0,0.020016,0,0,2803.2,0.0
1682444861443106556,,1682444861,442566955,,0.020004,0,0,2803.2,0.0,0.020004,0,0,2803.2,0.0,0.020004,0,0,2803.2,0.0,0.020004,0,0,2803.2,0.0
1682444861459226935,,1682444861,458719592,,0.020036,0,0,2803.2,0.0,0.020036,0,0,2803.2,0.0,0.020036,0,0,2803.2,0.0,0.020036,0,0,2803.2,0.0
1682444861479650848,,1682444861,479202337,,0.020024,0,0,2803.2,0.0,0.020024,0,0,2803.2,0.0,0.020024,0,0,2803.2,0.0,0.020024,0,0,2803.2,0.0
1682444861500269590,,1682444861,499748007,,0.020016,0,0,2803.2,0.0,0.020016,0,0,2803.2,0.0,0.020016,0,0,2803.2,0.0,0.020016,0,0,2803.2,0.0
1682444861520693170,,1682444861,520223845,,0.02002,0,0,2803.2,0.0,0.02002,0,0,2803.2,0.0,0.02002,0,0,2803.2,0.0,0.02002,0,0,2803.2,0.0
1682444861541229211,,1682444861,540752515,,0.020004,0,0,2803.2,0.0,0.020004,0,0,2803.2,0.0,0.020004,0,0,2803.2,0.0,0.020004,0,0,2803.2,0.0
1682444861561637272,,1682444861,561216613,,0.02002,0,0,2803.2,0.0,0.02002,0,0,2803.2,0.0,0.02002,0,0,2803.2,0.0,0.02002,0,0,2803.2,0.0
1682444861582418123,,1682444861,581800856,,0.02002,0,0,2803.2,0.0,0.02002,0,0,2803.2,0.0,0.02002,0,0,2803.2,0.0,0.02002,0,0,2803.2,0.0
1682444861602739908,,1682444861,602221325,,0.020036,0,0,2803.2,0.0,0.020036,0,0,2803.2,0.0,0.020036,0,0,2803.2,0.0,0.020036,0,0,2803.2,0.0
1682444861618972378,,1682444861,618433609,,0.020024,0,0,2803.2,0.0,0.020024,0,0,2803.2,0.0,0.020024,0,0,2803.2,0.0,0.020024,0,0,2803.2,0.0
1682444861639446678,,1682444861,638926299,,0.020056,0,0,2803.2,0.0,0.020056,0,0,2803.2,0.0,0.020056,0,0,2803.2,0.0,0.020056,0,0,2803.2,0.0
1682444861660216233,,1682444861,659587004,,0.020024,0,0,2803.2,0.0,0.020024,0,0,2803.2,0.0,0.020024,0,0,2803.2,0.0,0.020024,0,0,2803.2,0.0
1682444861680405465,,1682444861,679908622,,0.02002,0,0,2803.2,0.0,0.02002,0,0,2803.2,0.0,0.02002,0,0,2803.2,0.0,0.02002,0,0,2803.2,0.0
1682444861700830360,,1682444861,700376627,,0.02002,0,0,2803.2,0.0,0.02002,0,0,2803.2,0.0,0.02002,0,0,2803.2,0.0,0.02002,0,0,2803.2,0.0
1682444861721403844,,1682444861,720933019,,0.020016,0,0,2803.2,0.0,0.020016,0,0,2803.2,0.0,0.020016,0,0,2803.2,0.0,0.020016,0,0,2803.2,0.0
1682444861742181899,,1682444861,741541799,,0.020024,0,0,2803.2,0.0,0.020024,0,0,2803.2,0.0,0.020024,0,0,2803.2,0.0,0.020024,0,0,2803.2,0.0
1682444861762763772,,1682444861,762057877,,0.02002,0,0,2803.2,0.0,0.02002,0,0,2803.2,0.0,0.02002,0,0,2803.2,0.0,0.02002,0,0,2803.2,0.0
1682444861783337034,,1682444861,782624010,,0.02002,0,0,2803.2,0.0,0.02002,0,0,2803.2,0.0,0.02002,0,0,2803.2,0.0,0.02002,0,0,2803.2,0.0
1682444861799538504,,1682444861,798718611,,0.02002,0,0,2803.2,0.0,0.02002,0,0,2803.2,0.0,0.02002,0,0,2803.2,0.0,0.02002,0,0,2803.2,0.0
1682444861819879085,,1682444861,819187931,,0.02002,0,0,2803.2,0.0,0.02002,0,0,2803.2,0.0,0.02002,0,0,2803.2,0.0,0.02002,0,0,2803.2,0.0
1682444861840114001,,1682444861,839592418,,0.020016,0,0,2803.2,0.0,0.020016,0,0,2803.2,0.0,0.020016,0,0,2803.2,0.0,0.020016,0,0,2803.2,0.0
1682444861860586580,,1682444861,860085922,,0.02002,0,0,2803.2,0.0,0.02002,0,0,2803.2,0.0,0.02002,0,0,2803.2,0.0,0.02002,0,0,2803.2,0.0
1682444861881069251,,1682444861,880614185,,0.020024,0,0,2803.2,0.0,0.020024,0,0,2803.2,0.0,0.020024,0,0,2803.2,0.0,0.020024,0,0,2803.2,0.0
1682444861901467961,,1682444861,901087931,,0.020036,0,0,2803.2,0.0,0.020036,0,0,2803.2,0.0,0.020036,0,0,2803.2,0.0,0.020036,0,0,2803.2,0.0
1682444861922186035,,1682444861,921684952,,0.020004,0,0,2803.2,0.0,0.020004,0,0,2803.2,0.0,0.020004,0,0,2803.2,0.0,0.020004,0,0,2803.2,0.0
1682444861943052366,,1682444861,942316305,,0.02002,0,0,2803.2,0.0,0.02002,0,0,2803.2,0.0,0.02002,0,0,2803.2,0.0,0.02002,0,0,2803.2,0.0
1682444861963283931,,1682444861,962687997,,0.020016,0,0,2803.2,0.0,0.020016,0,0,2803.2,0.0,0.020016,0,0,2803.2,0.0,0.020016,0,0,2803.2,0.0
1682444861979540548,,1682444861,978950558,,0.020004,0,0,2803.2,0.0,0.020004,0,0,2803.2,0.0,0.020004,0,0,2803.2,0.0,0.020004,0,0,2803.2,0.0
1682444862000042719,,1682444861,999390601,,0.02002,0,0,2803.2,0.0,0.02002,0,0,2803.2,0.0,0.02002,0,0,2803.2,0.0,0.02002,0,0,2803.2,0.0
1682444862020595815,,1682444862,20002325,,0.02002,0,0,2803.2,0.0,0.02002,0,0,2803.2,0.0,0.02002,0,0,2803.2,0.0,0.02002,0,0,2803.2,0.0
1682444862040778991,,1682444862,40363924,,0.02002,0,0,2803.2,0.0,0.02002,0,0,2803.2,0.0,0.02002,0,0,2803.2,0.0,0.02002,0,0,2803.2,0.0
1682444862061245459,,1682444862,60865243,,0.02002,0,0,2803.2,0.0,0.02002,0,0,2803.2,0.0,0.02002,0,0,2803.2,0.0,0.02002,0,0,2803.2,0.0
1682444862082145030,,1682444862,81499338,,0.020016,0,0,2803.2,0.0,0.020016,0,0,2803.2,0.0,0.020016,0,0,2803.2,0.0,0.020016,0,0,2803.2,0.0
1682444862102450538,,1682444862,101983620,,0.020004,0,0,2803.2,0.0,0.020004,0,0,2803.2,0.0,0.020004,0,0,2803.2,0.0,0.020004,0,0,2803.2,0.0
1682444862122811507,,1682444862,122380682,,0.020016,0,0,2803.2,0.0,0.020016,0,0,2803.2,0.0,0.020016,0,0,2803.2,0.0,0.020016,0,0,2803.2,0.0
1682444862139094142,,1682444862,138536782,,0.020004,0,0,2803.2,0.0,0.020004,0,0,2803.2,0.0,0.020004,0,0,2803.2,0.0,0.020004,0,0,2803.2,0.0
1682444862159622313,,1682444862,159133247,,0.020036,0,0,2803.2,0.0,0.020036,0,0,2803.2,0.0,0.020036,0,0,2803.2,0.0,0.020036,0,0,2803.2,0.0
1682444862180057540,,1682444862,179558290,,0.020004,0,0,2803.2,0.0,0.020004,0,0,2803.2,0.0,0.020004,0,0,2803.2,0.0,0.020004,0,0,2803.2,0.0
1682444862200503656,,1682444862,200044535,,0.02002,0,0,2803.2,0.0,0.02002,0,0,2803.2,0.0,0.02002,0,0,2803.2,0.0,0.02002,0,0,2803.2,0.0
1682444862220954606,,1682444862,220547428,,0.020036,0,0,2803.2,0.0,0.020036,0,0,2803.2,0.0,0.020036,0,0,2803.2,0.0,0.020036,0,0,2803.2,0.0
1682444862241813159,,1682444862,241152079,,0.020004,0,0,2803.2,0.0,0.020004,0,0,2803.2,0.0,0.020004,0,0,2803.2,0.0,0.020004,0,0,2803.2,0.0
1682444862262438069,,1682444862,261699471,,0.02002,0,0,2803.2,0.0,0.02002,0,0,2803.2,0.0,0.02002,0,0,2803.2,0.0,0.02002,0,0,2803.2,0.0
1682444862283012757,,1682444862,282261233,,0.020016,0,0,2803.2,0.0,0.020016,0,0,2803.2,0.0,0.020016,0,0,2803.2,0.0,0.020016,0,0,2803.2,0.0
1682444862303223673,,1682444862,302635091,,0.02002,0,0,2803.2,0.0,0.02002,0,0,2803.2,0.0,0.02002,0,0,2803.2,0.0,0.02002,0,0,2803.2,0.0
1682444862319385477,,1682444862,318808728,,0.020004,0,0,2803.2,0.0,0.020004,0,0,2803.2,0.0,0.020004,0,0,2803.2,0.0,0.020004,0,0,2803.2,0.0
1682444862339505525,,1682444862,339187790,,0.02002,0,0,2803.2,0.0,0.02002,0,0,2803.2,0.0,0.02002,0,0,2803.2,0.0,0.02002,0,0,2803.2,0.0
1682444862359943142,,1682444862,359662388,,0.020036,0,0,2803.2,0.0,0.020036,0,0,2803.2,0.0,0.020036,0,0,2803.2,0.0,0.020036,0,0,2803.2,0.0
1682444862380498052,,1682444862,380210632,,0.020004,0,0,2803.2,0.0,0.020004,0,0,2803.2,0.0,0.020004,0,0,2803.2,0.0,0.020004,0,0,2803.2,0.0
1682444862400953483,,1682444862,400689173,,0.020036,0,0,2803.2,0.0,0.020036,0,0,2803.2,0.0,0.020036,0,0,2803.2,0.0,0.020036,0,0,2803.2,0.0
1682444862421547856,,1682444862,421247695,,0.02002,0,0,2803.2,0.0,0.02002,0,0,2803.2,0.0,0.02002,0,0,2803.2,0.0,0.02002,0,0,2803.2,0.0
1682444862442202876,,1682444862,441820901,,0.02004,0,0,2803.2,0.0,0.02004,0,0,2803.2,0.0,0.02004,0,0,2803.2,0.0,0.02004,0,0,2803.2,0.0
1682444862462670547,,1682444862,462286480,,0.02002,0,0,2803.2,0.0,0.02002,0,0,2803.2,0.0,0.02002,0,0,2803.2,0.0,0.02002,0,0,2803.2,0.0
1682444862483005277,,1682444862,482690375,,0.02002,0,0,2803.2,0.0,0.02002,0,0,2803.2,0.0,0.02002,0,0,2803.2,0.0,0.02002,0,0,2803.2,0.0
1682444862499189821,,1682444862,498888086,,0.020024,0,0,2803.2,0.0,0.020024,0,0,2803.2,0.0,0.020024,0,0,2803.2,0.0,0.020024,0,0,2803.2,0.0
1682444862519654011,,1682444862,519366442,,0.02002,0,0,2803.2,0.0,0.02002,0,0,2803.2,0.0,0.02002,0,0,2803.2,0.0,0.02002,0,0,2803.2,0.0
1682444862540226755,,1682444862,539912779,,0.020016,0,0,2803.2,0.0,0.020016,0,0,2803.2,0.0,0.020016,0,0,2803.2,0.0,0.020016,0,0,2803.2,0.0
1682444862560983143,,1682444862,560531355,,0.020004,0,0,2803.2,0.0,0.020004,0,0,2803.2,0.0,0.020004,0,0,2803.2,0.0,0.020004,0,0,2803.2,0.0
1682444862581223671,,1682444862,580924287,,0.02002,0,0,2803.2,0.0,0.02002,0,0,2803.2,0.0,0.02002,0,0,2803.2,0.0,0.02002,0,0,2803.2,0.0
1682444862601883727,,1682444862,601493420,,0.020016,0,0,2803.2,0.0,0.020016,0,0,2803.2,0.0,0.020016,0,0,2803.2,0.0,0.020016,0,0,2803.2,0.0
1682444862622363399,,1682444862,622012701,,0.020004,0,0,2803.2,0.0,0.020004,0,0,2803.2,0.0,0.020004,0,0,2803.2,0.0,0.020004,0,0,2803.2,0.0
1682444862642778534,,1682444862,642453058,,0.020016,0,0,2803.2,0.0,0.020016,0,0,2803.2,0.0,0.020016,0,0,2803.2,0.0,0.020016,0,0,2803.2,0.0
1682444862659304998,,1682444862,658820933,,0.02002,0,0,2803.2,0.0,0.02002,0,0,2803.2,0.0,0.02002,0,0,2803.2,0.0,0.02002,0,0,2803.2,0.0
1682444862679482101,,1682444862,679110922,,0.020004,0,0,2803.2,0.0,0.020004,0,0,2803.2,0.0,0.020004,0,0,2803.2,0.0,0.020004,0,0,2803.2,0.0
1682444862699979864,,1682444862,699620426,,0.020036,0,0,2803.2,0.0,0.020036,0,0,2803.2,0.0,0.020036,0,0,2803.2,0.0,0.020036,0,0,2803.2,0.0
1682444862720431721,,1682444862,720109579,,0.020004,0,0,2803.2,0.0,0.020004,0,0,2803.2,0.0,0.020004,0,0,2803.2,0.0,0.020004,0,0,2803.2,0.0
1682444862741175276,,1682444862,740738562,,0.020016,0,0,2803.2,0.0,0.020016,0,0,2803.2,0.0,0.020016,0,0,2803.2,0.0,0.020016,0,0,2803.2,0.0
1682444862761686114,,1682444862,761250696,,0.020004,0,0,2803.2,0.0,0.020004,0,0,2803.2,0.0,0.020004,0,0,2803.2,0.0,0.020004,0,0,2803.2,0.0
1682444862782088638,,1682444862,781698108,,0.020036,0,0,2803.2,0.0,0.020036,0,0,2803.2,0.0,0.020036,0,0,2803.2,0.0,0.020036,0,0,2803.2,0.0
1682444862802480848,,1682444862,802166798,,0.020004,0,0,2803.2,0.0,0.020004,0,0,2803.2,0.0,0.020004,0,0,2803.2,0.0,0.020004,0,0,2803.2,0.0
1682444862822958241,,1682444862,822644136,,0.020036,0,0,2803.2,0.0,0.020036,0,0,2803.2,0.0,0.020036,0,0,2803.2,0.0,0.020036,0,0,2803.2,0.0
1682444862839085694,,1682444862,838789551,,0.020004,0,0,2803.2,0.0,0.020004,0,0,2803.2,0.0,0.020004,0,0,2803.2,0.0,0.020004,0,0,2803.2,0.0
1682444862859633679,,1682444862,859300518,,0.020016,0,0,2803.2,0.0,0.020016,0,0,2803.2,0.0,0.020016,0,0,2803.2,0.0,0.020016,0,0,2803.2,0.0
1682444862880678451,,1682444862,880165145,,0.020004,0,0,2803.2,0.0,0.020004,0,0,2803.2,0.0,0.020004,0,0,2803.2,0.0,0.020004,0,0,2803.2,0.0
1682444862900733185,,1682444862,900396599,,0.020016,0,0,2803.2,0.0,0.020016,0,0,2803.2,0.0,0.020016,0,0,2803.2,0.0,0.020016,0,0,2803.2,0.0
1682444862921386539,,1682444862,920983139,,0.020024,0,0,2803.2,0.0,0.020024,0,0,2803.2,0.0,0.020024,0,0,2803.2,0.0,0.020024,0,0,2803.2,0.0
1682444862941738212,,1682444862,941415570,,0.02002,0,0,2803.2,0.0,0.02002,0,0,2803.2,0.0,0.02002,0,0,2803.2,0.0,0.02002,0,0,2803.2,0.0
1682444862962322845,,1682444862,961994036,,0.02002,0,0,2803.2,0.0,0.02002,0,0,2803.2,0.0,0.02002,0,0,2803.2,0.0,0.02002,0,0,2803.2,0.0
1682444862982679925,,1682444862,982394875,,0.020036,0,0,2803.2,0.0,0.020036,0,0,2803.2,0.0,0.020036,0,0,2803.2,0.0,0.020036,0,0,2803.2,0.0
1682444863003200800,,1682444863,2900175,,0.020004,0,0,2803.2,0.0,0.020004,0,0,2803.2,0.0,0.020004,0,0,2803.2,0.0,0.020004,0,0,2803.2,0.0
1682444863019318586,,1682444863,19037239,,0.02002,0,0,2803.2,0.0,0.02002,0,0,2803.2,0.0,0.02002,0,0,2803.2,0.0,0.02002,0,0,2803.2,0.0
1682444863039860663,,1682444863,39554335,,0.020016,0,0,2803.2,0.0,0.020016,0,0,2803.2,0.0,0.020016,0,0,2803.2,0.0,0.020016,0,0,2803.2,0.0
1682444863060841770,,1682444863,60257188,,0.020004,0,0,2803.2,0.0,0.020004,0,0,2803.2,0.0,0.020004,0,0,2803.2,0.0,0.020004,0,0,2803.2,0.0
1682444863081470716,,1682444863,80778636,,0.020016,0,0,2803.2,0.0,0.020016,0,0,2803.2,0.0,0.020016,0,0,2803.2,0.0,0.020016,0,0,2803.2,0.0
1682444863101818205,,1682444863,101245363,,0.020004,0,0,2803.2,0.0,0.020004,0,0,2803.2,0.0,0.020004,0,0,2803.2,0.0,0.020004,0,0,2803.2,0.0
1682444863122373412,,1682444863,121741312,,0.020036,0,0,2803.2,0.0,0.020036,0,0,2803.2,0.0,0.020036,0,0,2803.2,0.0,0.020036,0,0,2803.2,0.0
1682444863142879064,,1682444863,142383906,,0.020024,0,0,2803.2,0.0,0.020024,0,0,2803.2,0.0,0.020024,0,0,2803.2,0.0,0.020024,0,0,2803.2,0.0
1682444863163228348,,1682444863,162715117,,0.020016,0,0,2803.2,0.0,0.020016,0,0,2803.2,0.0,0.020016,0,0,2803.2,0.0,0.020016,0,0,2803.2,0.0
1682444863179243211,,1682444863,178808144,,0.02002,0,0,2803.2,0.0,0.02002,0,0,2803.2,0.0,0.02002,0,0,2803.2,0.0,0.02002,0,0,2803.2,0.0
1682444863199739048,,1682444863,199312741,,0.020024,0,0,2803.2,0.0,0.020024,0,0,2803.2,0.0,0.020024,0,0,2803.2,0.0,0.020024,0,0,2803.2,0.0
1682444863220217108,,1682444863,219798264,,0.020036,0,0,2803.2,0.0,0.020036,0,0,2803.2,0.0,0.020036,0,0,2803.2,0.0,0.020036,0,0,2803.2,0.0
1682444863240828666,,1682444863,240392803,,0.020024,0,0,2803.2,0.0,0.020024,0,0,2803.2,0.0,0.020024,0,0,2803.2,0.0,0.020024,0,0,2803.2,0.0
1682444863261568407,,1682444863,260994084,,0.020036,0,0,2803.2,0.0,0.020036,0,0,2803.2,0.0,0.020036,0,0,2803.2,0.0,0.020036,0,0,2803.2,0.0
1682444863282113558,,1682444863,281451848,,0.020004,0,0,2803.2,0.0,0.020004,0,0,2803.2,0.0,0.020004,0,0,2803.2,0.0,0.020004,0,0,2803.2,0.0
1682444863302658062,,1682444863,302062980,,0.020016,0,0,2803.2,0.0,0.020016,0,0,2803.2,0.0,0.020016,0,0,2803.2,0.0,0.020016,0,0,2803.2,0.0
1682444863323014272,,1682444863,322477245,,0.020004,0,0,2803.2,0.0,0.020004,0,0,2803.2,0.0,0.020004,0,0,2803.2,0.0,0.020004,0,0,2803.2,0.0
1682444863343611386,,1682444863,343008767,,0.02002,0,0,2803.2,0.0,0.02002,0,0,2803.2,0.0,0.02002,0,0,2803.2,0.0,0.02002,0,0,2803.2,0.0
1682444863359387956,,1682444863,358996870,,0.02002,0,0,2803.2,0.0,0.02002,0,0,2803.2,0.0,0.02002,0,0,2803.2,0.0,0.02002,0,0,2803.2,0.0
1682444863379975440,,1682444863,379545058,,0.020016,0,0,2803.2,0.0,0.020016,0,0,2803.2,0.0,0.020016,0,0,2803.2,0.0,0.020016,0,0,2803.2,0.0
1682444863400348446,,1682444863,399991212,,0.020024,0,0,2803.2,0.0,0.020024,0,0,2803.2,0.0,0.020024,0,0,2803.2,0.0,0.020024,0,0,2803.2,0.0
1682444863421072724,,1682444863,420620769,,0.020036,0,0,2803.2,0.0,0.020036,0,0,2803.2,0.0,0.020036,0,0,2803.2,0.0,0.020036,0,0,2803.2,0.0
1682444863442072442,,1682444863,441248864,,0.020004,0,0,2803.2,0.0,0.020004,0,0,2803.2,0.0,0.020004,0,0,2803.2,0.0,0.020004,0,0,2803.2,0.0
1682444863462345635,,1682444863,461698017,,0.020016,0,0,2803.2,0.0,0.020016,0,0,2803.2,0.0,0.020016,0,0,2803.2,0.0,0.020016,0,0,2803.2,0.0
1682444863482803770,,1682444863,482186299,,0.02002,0,0,2803.2,0.0,0.02002,0,0,2803.2,0.0,0.02002,0,0,2803.2,0.0,0.02002,0,0,2803.2,0.0
1682444863503279070,,1682444863,502711636,,0.020024,0,0,2803.2,0.0,0.020024,0,0,2803.2,0.0,0.020024,0,0,2803.2,0.0,0.020024,0,0,2803.2,0.0
1682444863523676854,,1682444863,523138234,,0.020036,0,0,2803.2,0.0,0.020036,0,0,2803.2,0.0,0.020036,0,0,2803.2,0.0,0.020036,0,0,2803.2,0.0
1682444863539793011,,1682444863,539289687,,0.02002,0,0,2803.2,0.0,0.02002,0,0,2803.2,0.0,0.02002,0,0,2803.2,0.0,0.02002,0,0,2803.2,0.0
1682444863560317700,,1682444863,559822505,,0.02002,0,0,2803.2,0.0,0.02002,0,0,2803.2,0.0,0.02002,0,0,2803.2,0.0,0.02002,0,0,2803.2,0.0
1682444863580864944,,1682444863,580379564,,0.020004,0,0,2803.2,0.0,0.020004,0,0,2803.2,0.0,0.020004,0,0,2803.2,0.0,0.020004,0,0,2803.2,0.0
1682444863601318116,,1682444863,600842013,,0.020016,0,0,2803.2,0.0,0.020016,0,0,2803.2,0.0,0.020016,0,0,2803.2,0.0,0.020016,0,0,2803.2,0.0
1682444863621773343,,1682444863,621324499,,0.020024,0,0,2803.2,0.0,0.020024,0,0,2803.2,0.0,0.020024,0,0,2803.2,0.0,0.020024,0,0,2803.2,0.0
1682444863642468658,,1682444863,641812318,,0.020016,0,0,2803.2,0.0,0.020016,0,0,2803.2,0.0,0.020016,0,0,2803.2,0.0,0.020016,0,0,2803.2,0.0
1682444863664252751,,1682444863,663711760,,0.02002,0,0,2803.2,0.0,0.02002,0,0,2803.2,0.0,0.02002,0,0,2803.2,0.0,0.02002,0,0,2803.2,0.0
1682444863683294336,,1682444863,682828048,,0.02002,0,0,2803.2,0.0,0.02002,0,0,2803.2,0.0,0.02002,0,0,2803.2,0.0,0.02002,0,0,2803.2,0.0
1682444863699553139,,1682444863,699027241,,0.020004,0,0,2803.2,0.0,0.020004,0,0,2803.2,0.0,0.020004,0,0,2803.2,0.0,0.020004,0,0,2803.2,0.0
1682444863720062698,,1682444863,719542726,,0.02002,0,0,2803.2,0.0,0.02002,0,0,2803.2,0.0,0.02002,0,0,2803.2,0.0,0.02002,0,0,2803.2,0.0
1682444863740556554,,1682444863,740057211,,0.020016,0,0,2803.2,0.0,0.020016,0,0,2803.2,0.0,0.020016,0,0,2803.2,0.0,0.020016,0,0,2803.2,0.0
1682444863760920987,,1682444863,760473810,,0.020004,0,0,2803.2,0.0,0.020004,0,0,2803.2,0.0,0.020004,0,0,2803.2,0.0,0.020004,0,0,2803.2,0.0
1682444863781636302,,1682444863,781174421,,0.020036,0,0,2803.2,0.0,0.020036,0,0,2803.2,0.0,0.020036,0,0,2803.2,0.0,0.020036,0,0,2803.2,0.0
1682444863802071770,,1682444863,801571187,,0.020004,0,0,2803.2,0.0,0.020004,0,0,2803.2,0.0,0.020004,0,0,2803.2,0.0,0.020004,0,0,2803.2,0.0
