rosbagTimestamp,stamp,secs,nsecs,mot_data_array,-,sample_period,pwm,encoder_delta,ticks_per_rev,angular_speed,-,sample_period,pwm,encoder_delta,ticks_per_rev,angular_speed,-,sample_period,pwm,encoder_delta,ticks_per_rev,angular_speed,-,sample_period,pwm,encoder_delta,ticks_per_rev,angular_speed
1682445825671425940,,1682445825,670712378,,0.020024,0,0,2803.2,0.0,0.020024,0,0,2803.2,0.0,0.020024,0,0,2803.2,0.0,0.020024,0,117,2803.2,13.11238372110466
1682445825691691856,,1682445825,691227086,,0.02002,0,-1098,2803.2,-123.0546779980591,0.02002,0,64,2803.2,7.172585967099985,0.02002,0,-3307,2803.2,-370.62096551874447,0.02002,0,-2303,2803.2,-258.1010231598635
1682445825712198082,,1682445825,711708331,,0.020024,0,0,2803.2,0.0,0.020024,0,0,2803.2,0.0,0.020024,0,0,2803.2,0.0,0.020024,0,0,2803.2,0.0
1682445825732684623,,1682445825,732246816,,0.020016,0,0,2803.2,0.0,0.020016,0,0,2803.2,0.0,0.020016,0,0,2803.2,0.0,0.020016,0,0,2803.2,0.0
1682445825753246608,,1682445825,752758802,,0.020004,0,0,2803.2,0.0,0.020004,0,0,2803.2,0.0,0.020004,0,0,2803.2,0.0,0.020004,0,0,2803.2,0.0
1682445825773667206,,1682445825,773218288,,0.02002,0,0,2803.2,0.0,0.02002,0,0,2803.2,0.0,0.02002,0,0,2803.2,0.0,0.02002,0,0,2803.2,0.0
1682445825794206543,,1682445825,793689034,,0.02002,0,0,2803.2,0.0,0.02002,0,0,2803.2,0.0,0.02002,0,0,2803.2,0.0,0.02002,0,0,2803.2,0.0
1682445825810392550,,1682445825,809898003,,0.02002,0,0,2803.2,0.0,0.02002,0,0,2803.2,0.0,0.02002,0,0,2803.2,0.0,0.02002,0,0,2803.2,0.0
1682445825831024737,,1682445825,830444618,,0.020036,0,0,2803.2,0.0,0.020036,0,0,2803.2,0.0,0.020036,0,0,2803.2,0.0,0.020036,0,0,2803.2,0.0
1682445825851433761,,1682445825,850941992,,0.020004,0,0,2803.2,0.0,0.020004,0,0,2803.2,0.0,0.020004,0,0,2803.2,0.0,0.020004,0,0,2803.2,0.0
1682445825871983394,,1682445825,871412701,,0.02002,0,0,2803.2,0.0,0.02002,0,0,2803.2,0.0,0.02002,0,0,2803.2,0.0,0.02002,0,0,2803.2,0.0
1682445825892723524,,1682445825,892212903,,0.02002,0,0,2803.2,0.0,0.02002,0,0,2803.2,0.0,0.02002,0,0,2803.2,0.0,0.02002,0,0,2803.2,0.0
1682445825912897923,,1682445825,912455468,,0.020016,0,0,2803.2,0.0,0.020016,0,0,2803.2,0.0,0.020016,0,0,2803.2,0.0,0.020016,0,0,2803.2,0.0
1682445825933368483,,1682445825,932950620,,0.020004,0,0,2803.2,0.0,0.020004,0,0,2803.2,0.0,0.020004,0,0,2803.2,0.0,0.020004,0,0,2803.2,0.0
1682445825953780267,,1682445825,953383903,,0.020036,0,0,2803.2,0.0,0.020036,0,0,2803.2,0.0,0.020036,0,0,2803.2,0.0,0.020036,0,0,2803.2,0.0
1682445825970140160,,1682445825,969625817,,0.020004,0,0,2803.2,0.0,0.020004,0,0,2803.2,0.0,0.020004,0,0,2803.2,0.0,0.020004,0,0,2803.2,0.0
1682445825990601683,,1682445825,990101729,,0.020036,0,0,2803.2,0.0,0.020036,0,0,2803.2,0.0,0.020036,0,0,2803.2,0.0,0.020036,0,0,2803.2,0.0
1682445826011168667,,1682445826,10637973,,0.020004,0,0,2803.2,0.0,0.020004,0,0,2803.2,0.0,0.020004,0,0,2803.2,0.0,0.020004,0,0,2803.2,0.0
1682445826031588173,,1682445826,31114941,,0.020016,0,0,2803.2,0.0,0.020016,0,0,2803.2,0.0,0.020016,0,0,2803.2,0.0,0.020016,0,0,2803.2,0.0
1682445826052411245,,1682445826,51647389,,0.02002,0,0,2803.2,0.0,0.02002,0,0,2803.2,0.0,0.02002,0,0,2803.2,0.0,0.02002,0,0,2803.2,0.0
1682445826072948397,,1682445826,72452980,,0.020004,0,0,2803.2,0.0,0.020004,0,0,2803.2,0.0,0.020004,0,0,2803.2,0.0,0.020004,0,0,2803.2,0.0
1682445826093173536,,1682445826,92682989,,0.020036,0,0,2803.2,0.0,0.020036,0,0,2803.2,0.0,0.020036,0,0,2803.2,0.0,0.020036,0,0,2803.2,0.0
1682445826113673688,,1682445826,113129161,,0.020004,0,0,2803.2,0.0,0.020004,0,0,2803.2,0.0,0.020004,0,0,2803.2,0.0,0.020004,0,0,2803.2,0.0
1682445826134196988,,1682445826,133660479,,0.02004,0,0,2803.2,0.0,0.02004,0,0,2803.2,0.0,0.02004,0,0,2803.2,0.0,0.02004,0,0,2803.2,0.0
1682445826150332941,,1682445826,149814876,,0.02002,0,0,2803.2,0.0,0.02002,0,0,2803.2,0.0,0.02002,0,0,2803.2,0.0,0.02002,0,0,2803.2,0.0
1682445826170857833,,1682445826,170364287,,0.020016,0,0,2803.2,0.0,0.020016,0,0,2803.2,0.0,0.020016,0,0,2803.2,0.0,0.020016,0,0,2803.2,0.0
1682445826191285969,,1682445826,190810366,,0.020024,0,0,2803.2,0.0,0.020024,0,0,2803.2,0.0,0.020024,0,0,2803.2,0.0,0.020024,0,0,2803.2,0.0
1682445826211773306,,1682445826,211316870,,0.02002,0,0,2803.2,0.0,0.02002,0,0,2803.2,0.0,0.02002,0,0,2803.2,0.0,0.02002,0,0,2803.2,0.0
1682445826232528139,,1682445826,232047389,,0.020036,0,0,2803.2,0.0,0.020036,0,0,2803.2,0.0,0.020036,0,0,2803.2,0.0,0.020036,0,0,2803.2,0.0
1682445826252821240,,1682445826,252372266,,0.020004,0,0,2803.2,0.0,0.020004,0,0,2803.2,0.0,0.020004,0,0,2803.2,0.0,0.020004,0,0,2803.2,0.0
1682445826273378706,,1682445826,272885715,,0.020016,0,0,2803.2,0.0,0.020016,0,0,2803.2,0.0,0.020016,0,0,2803.2,0.0,0.020016,0,0,2803.2,0.0
1682445826293935413,,1682445826,293409681,,0.020024,0,0,2803.2,0.0,0.020024,0,0,2803.2,0.0,0.020024,0,0,2803.2,0.0,0.020024,0,0,2803.2,0.0
1682445826314479823,,1682445826,313902056,,0.020056,0,0,2803.2,0.0,0.020056,0,0,2803.2,0.0,0.020056,0,0,2803.2,0.0,0.020056,0,0,2803.2,0.0
1682445826330495149,,1682445826,330011657,,0.02002,0,0,2803.2,0.0,0.02002,0,0,2803.2,0.0,0.02002,0,0,2803.2,0.0,0.02002,0,0,2803.2,0.0
1682445826350922932,,1682445826,350498625,,0.020004,0,0,2803.2,0.0,0.020004,0,0,2803.2,0.0,0.020004,0,0,2803.2,0.0,0.020004,0,0,2803.2,0.0
1682445826371430177,,1682445826,371016517,,0.02002,0,0,2803.2,0.0,0.02002,0,0,2803.2,0.0,0.02002,0,0,2803.2,0.0,0.02002,0,0,2803.2,0.0
1682445826392039068,,1682445826,391542151,,0.020016,0,0,2803.2,0.0,0.020016,0,0,2803.2,0.0,0.020016,0,0,2803.2,0.0,0.020016,0,0,2803.2,0.0
1682445826412547257,,1682445826,412057377,,0.020004,0,0,2803.2,0.0,0.020004,0,0,2803.2,0.0,0.020004,0,0,2803.2,0.0,0.020004,0,0,2803.2,0.0
1682445826433032817,,1682445826,432584695,,0.020016,0,0,2803.2,0.0,0.020016,0,0,2803.2,0.0,0.020016,0,0,2803.2,0.0,0.020016,0,0,2803.2,0.0
1682445826453643097,,1682445826,453137624,,0.02002,0,0,2803.2,0.0,0.02002,0,0,2803.2,0.0,0.02002,0,0,2803.2,0.0,0.02002,0,0,2803.2,0.0
1682445826474474114,,1682445826,473637777,,0.020004,0,0,2803.2,0.0,0.020004,0,0,2803.2,0.0,0.020004,0,0,2803.2,0.0,0.020004,0,0,2803.2,0.0
1682445826490385589,,1682445826,489785303,,0.020016,0,0,2803.2,0.0,0.020016,0,0,2803.2,0.0,0.020016,0,0,2803.2,0.0,0.020016,0,0,2803.2,0.0
1682445826510736559,,1682445826,510241067,,0.020024,0,0,2803.2,0.0,0.020024,0,0,2803.2,0.0,0.020024,0,0,2803.2,0.0,0.020024,0,0,2803.2,0.0
1682445826531205841,,1682445826,530757571,,0.02002,0,0,2803.2,0.0,0.02002,0,0,2803.2,0.0,0.02002,0,0,2803.2,0.0,0.02002,0,0,2803.2,0.0
1682445826551957470,,1682445826,551359814,,0.020016,0,0,2803.2,0.0,0.020016,0,0,2803.2,0.0,0.020016,0,0,2803.2,0.0,0.020016,0,0,2803.2,0.0
1682445826572399179,,1682445826,571788524,,0.020004,0,0,2803.2,0.0,0.020004,0,0,2803.2,0.0,0.020004,0,0,2803.2,0.0,0.020004,0,0,2803.2,0.0
1682445826592728687,,1682445826,592299009,,0.02002,0,0,2803.2,0.0,0.02002,0,0,2803.2,0.0,0.02002,0,0,2803.2,0.0,0.02002,0,0,2803.2,0.0
1682445826613258672,,1682445826,612802606,,0.020016,0,0,2803.2,0.0,0.020016,0,0,2803.2,0.0,0.020016,0,0,2803.2,0.0,0.020016,0,0,2803.2,0.0
1682445826633940469,,1682445826,633389386,,0.02002,0,0,2803.2,0.0,0.02002,0,0,2803.2,0.0,0.02002,0,0,2803.2,0.0,0.02002,0,0,2803.2,0.0
1682445826654349734,,1682445826,653842613,,0.020024,0,0,2803.2,0.0,0.020024,0,0,2803.2,0.0,0.020024,0,0,2803.2,0.0,0.020024,0,0,2803.2,0.0
1682445826670548741,,1682445826,669980492,,0.020016,0,0,2803.2,0.0,0.020016,0,0,2803.2,0.0,0.020016,0,0,2803.2,0.0,0.020016,0,0,2803.2,0.0
1682445826691104726,,1682445826,690545569,,0.020004,0,0,2803.2,0.0,0.020004,0,0,2803.2,0.0,0.020004,0,0,2803.2,0.0,0.020004,0,0,2803.2,0.0
1682445826711611193,,1682445826,711039981,,0.020016,0,0,2803.2,0.0,0.020016,0,0,2803.2,0.0,0.020016,0,0,2803.2,0.0,0.020016,0,0,2803.2,0.0
1682445826732023532,,1682445826,731532040,,0.020004,0,0,2803.2,0.0,0.020004,0,0,2803.2,0.0,0.020004,0,0,2803.2,0.0,0.020004,0,0,2803.2,0.0
1682445826752491462,,1682445826,752161690,,0.020036,0,0,2803.2,0.0,0.020036,0,0,2803.2,0.0,0.020036,0,0,2803.2,0.0,0.020036,0,0,2803.2,0.0
1682445826772964726,,1682445826,772506827,,0.020004,0,0,2803.2,0.0,0.020004,0,0,2803.2,0.0,0.020004,0,0,2803.2,0.0,0.020004,0,0,2803.2,0.0
1682445826793316752,,1682445826,793003942,,0.020016,0,0,2803.2,0.0,0.020016,0,0,2803.2,0.0,0.020016,0,0,2803.2,0.0,0.020016,0,0,2803.2,0.0
1682445826813739683,,1682445826,813427004,,0.020004,0,0,2803.2,0.0,0.020004,0,0,2803.2,0.0,0.020004,0,0,2803.2,0.0,0.020004,0,0,2803.2,0.0
1682445826829887376,,1682445826,829584789,,0.020016,0,0,2803.2,0.0,0.020016,0,0,2803.2,0.0,0.020016,0,0,2803.2,0.0,0.020016,0,0,2803.2,0.0
1682445826850422861,,1682445826,850096626,,0.020004,0,0,2803.2,0.0,0.020004,0,0,2803.2,0.0,0.020004,0,0,2803.2,0.0,0.020004,0,0,2803.2,0.0
1682445826870877440,,1682445826,870574446,,0.02002,0,0,2803.2,0.0,0.02002,0,0,2803.2,0.0,0.02002,0,0,2803.2,0.0,0.02002,0,0,2803.2,0.0
1682445826891520534,,1682445826,891157115,,0.020016,0,0,2803.2,0.0,0.020016,0,0,2803.2,0.0,0.020016,0,0,2803.2,0.0,0.020016,0,0,2803.2,0.0
1682445826912006131,,1682445826,911670489,,0.020024,0,0,2803.2,0.0,0.020024,0,0,2803.2,0.0,0.020024,0,0,2803.2,0.0,0.020024,0,0,2803.2,0.0
1682445826932452192,,1682445826,932160512,,0.020036,0,0,2803.2,0.0,0.020036,0,0,2803.2,0.0,0.020036,0,0,2803.2,0.0,0.020036,0,0,2803.2,0.0
1682445826953005584,,1682445826,952686368,,0.020024,0,0,2803.2,0.0,0.020024,0,0,2803.2,0.0,0.020024,0,0,2803.2,0.0,0.020024,0,0,2803.2,0.0
1682445826973493422,,1682445826,973195594,,0.020016,0,0,2803.2,0.0,0.020016,0,0,2803.2,0.0,0.020016,0,0,2803.2,0.0,0.020016,0,0,2803.2,0.0
1682445826994015778,,1682445826,993700783,,0.020004,0,0,2803.2,0.0,0.020004,0,0,2803.2,0.0,0.020004,0,0,2803.2,0.0,0.020004,0,0,2803.2,0.0
1682445827010203340,,1682445827,9858328,,0.020016,0,0,2803.2,0.0,0.020016,0,0,2803.2,0.0,0.020016,0,0,2803.2,0.0,0.020016,0,0,2803.2,0.0
1682445827030747196,,1682445827,30378332,,0.020024,0,0,2803.2,0.0,0.020024,0,0,2803.2,0.0,0.020024,0,0,2803.2,0.0,0.020024,0,0,2803.2,0.0
1682445827051210923,,1682445827,50887280,,0.02002,0,0,2803.2,0.0,0.02002,0,0,2803.2,0.0,0.02002,0,0,2803.2,0.0,0.02002,0,0,2803.2,0.0
1682445827071728890,,1682445827,71393007,,0.020016,0,0,2803.2,0.0,0.020016,0,0,2803.2,0.0,0.020016,0,0,2803.2,0.0,0.020016,0,0,2803.2,0.0
1682445827092242745,,1682445827,91921770,,0.02002,0,0,2803.2,0.0,0.02002,0,0,2803.2,0.0,0.02002,0,0,2803.2,0.0,0.02002,0,0,2803.2,0.0
1682445827112712157,,1682445827,112402626,,0.020024,0,0,2803.2,0.0,0.020024,0,0,2803.2,0.0,0.020024,0,0,2803.2,0.0,0.020024,0,0,2803.2,0.0
1682445827133239291,,1682445827,132928296,,0.02002,0,0,2803.2,0.0,0.02002,0,0,2803.2,0.0,0.02002,0,0,2803.2,0.0,0.02002,0,0,2803.2,0.0
1682445827153755795,,1682445827,153443985,,0.020036,0,0,2803.2,0.0,0.020036,0,0,2803.2,0.0,0.020036,0,0,2803.2,0.0,0.020036,0,0,2803.2,0.0
1682445827174312687,,1682445827,173928138,,0.02002,0,0,2803.2,0.0,0.02002,0,0,2803.2,0.0,0.02002,0,0,2803.2,0.0,0.02002,0,0,2803.2,0.0
1682445827190352585,,1682445827,190035684,,0.02002,0,0,2803.2,0.0,0.02002,0,0,2803.2,0.0,0.02002,0,0,2803.2,0.0,0.02002,0,0,2803.2,0.0
1682445827210841034,,1682445827,210536743,,0.020004,0,0,2803.2,0.0,0.020004,0,0,2803.2,0.0,0.020004,0,0,2803.2,0.0,0.020004,0,0,2803.2,0.0
1682445827231358557,,1682445827,231056877,,0.020036,0,0,2803.2,0.0,0.020036,0,0,2803.2,0.0,0.020036,0,0,2803.2,0.0,0.020036,0,0,2803.2,0.0
1682445827251923319,,1682445827,251586547,,0.02002,0,0,2803.2,0.0,0.02002,0,0,2803.2,0.0,0.02002,0,0,2803.2,0.0,0.02002,0,0,2803.2,0.0
1682445827272400231,,1682445827,272096977,,0.020004,0,0,2803.2,0.0,0.020004,0,0,2803.2,0.0,0.020004,0,0,2803.2,0.0,0.020004,0,0,2803.2,0.0
1682445827293019881,,1682445827,292638814,,0.020036,0,0,2803.2,0.0,0.020036,0,0,2803.2,0.0,0.020036,0,0,2803.2,0.0,0.020036,0,0,2803.2,0.0
1682445827313665512,,1682445827,313257668,,0.020004,0,0,2803.2,0.0,0.020004,0,0,2803.2,0.0,0.020004,0,0,2803.2,0.0,0.020004,0,0,2803.2,0.0
1682445827334004797,,1682445827,333649118,,0.020016,0,0,2803.2,0.0,0.020016,0,0,2803.2,0.0,0.020016,0,0,2803.2,0.0,0.020016,0,0,2803.2,0.0
1682445827354348971,,1682445827,354054939,,0.02002,0,0,2803.2,0.0,0.02002,0,0,2803.2,0.0,0.02002,0,0,2803.2,0.0,0.02002,0,0,2803.2,0.0
1682445827370560329,,1682445827,370264390,,0.02002,0,0,2803.2,0.0,0.02002,0,0,2803.2,0.0,0.02002,0,0,2803.2,0.0,0.02002,0,0,2803.2,0.0
1682445827391052667,,1682445827,390761191,,0.02002,0,0,2803.2,0.0,0.02002,0,0,2803.2,0.0,0.02002,0,0,2803.2,0.0,0.02002,0,0,2803.2,0.0
1682445827411662225,,1682445827,411308546,,0.02002,0,0,2803.2,0.0,0.02002,0,0,2803.2,0.0,0.02002,0,0,2803.2,0.0,0.02002,0,0,2803.2,0.0
1682445827432501741,,1682445827,431962788,,0.02002,0,0,2803.2,0.0,0.02002,0,0,2803.2,0.0,0.02002,0,0,2803.2,0.0,0.02002,0,0,2803.2,0.0
1682445827452962061,,1682445827,452452163,,0.020004,0,0,2803.2,0.0,0.020004,0,0,2803.2,0.0,0.020004,0,0,2803.2,0.0,0.020004,0,0,2803.2,0.0
1682445827473491343,,1682445827,472969944,,0.02002,0,0,2803.2,0.0,0.02002,0,0,2803.2,0.0,0.02002,0,0,2803.2,0.0,0.02002,0,0,2803.2,0.0
1682445827494019143,,1682445827,493456782,,0.02002,0,0,2803.2,0.0,0.02002,0,0,2803.2,0.0,0.02002,0,0,2803.2,0.0,0.02002,0,0,2803.2,0.0
1682445827514379890,,1682445827,513895676,,0.02002,0,0,2803.2,0.0,0.02002,0,0,2803.2,0.0,0.02002,0,0,2803.2,0.0,0.02002,0,0,2803.2,0.0
1682445827530528805,,1682445827,530035129,,0.02002,0,0,2803.2,0.0,0.02002,0,0,2803.2,0.0,0.02002,0,0,2803.2,0.0,0.02002,0,0,2803.2,0.0
1682445827551057661,,1682445827,550603373,,0.02004,0,0,2803.2,0.0,0.02004,0,0,2803.2,0.0,0.02004,0,0,2803.2,0.0,0.02004,0,0,2803.2,0.0
1682445827571492055,,1682445827,571061100,,0.02002,0,0,2803.2,0.0,0.02002,0,0,2803.2,0.0,0.02002,0,0,2803.2,0.0,0.02002,0,0,2803.2,0.0
1682445827592069743,,1682445827,591608862,,0.02002,0,0,2803.2,0.0,0.02002,0,0,2803.2,0.0,0.02002,0,0,2803.2,0.0,0.02002,0,0,2803.2,0.0
1682445827612675319,,1682445827,612159754,,0.020036,0,0,2803.2,0.0,0.020036,0,0,2803.2,0.0,0.020036,0,0,2803.2,0.0,0.020036,0,0,2803.2,0.0
1682445827633112454,,1682445827,632640907,,0.02002,0,0,2803.2,0.0,0.02002,0,0,2803.2,0.0,0.02002,0,0,2803.2,0.0,0.02002,0,0,2803.2,0.0
1682445827653722753,,1682445827,653139541,,0.020004,0,0,2803.2,0.0,0.020004,0,0,2803.2,0.0,0.020004,0,0,2803.2,0.0,0.020004,0,0,2803.2,0.0
1682445827674118685,,1682445827,673646119,,0.02002,0,0,2803.2,0.0,0.02002,0,0,2803.2,0.0,0.02002,0,0,2803.2,0.0,0.02002,0,0,2803.2,0.0
1682445827694542227,,1682445827,694076273,,0.02002,0,0,2803.2,0.0,0.02002,0,0,2803.2,0.0,0.02002,0,0,2803.2,0.0,0.02002,0,0,2803.2,0.0
1682445827710712772,,1682445827,710244354,,0.02002,0,0,2803.2,0.0,0.02002,0,0,2803.2,0.0,0.02002,0,0,2803.2,0.0,0.02002,0,0,2803.2,0.0
1682445827731215109,,1682445827,730756655,,0.020056,0,0,2803.2,0.0,0.020056,0,0,2803.2,0.0,0.020056,0,0,2803.2,0.0,0.020056,0,0,2803.2,0.0
1682445827752867667,,1682445827,752254826,,0.020024,0,0,2803.2,0.0,0.020024,0,0,2803.2,0.0,0.020024,0,0,2803.2,0.0,0.020024,0,0,2803.2,0.0
1682445827772392929,,1682445827,771894142,,0.020016,0,0,2803.2,0.0,0.020016,0,0,2803.2,0.0,0.020016,0,0,2803.2,0.0,0.020016,0,0,2803.2,0.0
1682445827792906192,,1682445827,792342369,,0.02002,0,0,2803.2,0.0,0.02002,0,0,2803.2,0.0,0.02002,0,0,2803.2,0.0,0.02002,0,0,2803.2,0.0
1682445827814396142,,1682445827,813440696,,0.020024,0,0,2803.2,0.0,0.020024,0,0,2803.2,0.0,0.020024,0,0,2803.2,0.0,0.020024,0,0,2803.2,0.0
1682445827834004125,,1682445827,833388118,,0.020016,0,0,2803.2,0.0,0.020016,0,0,2803.2,0.0,0.020016,0,0,2803.2,0.0,0.020016,0,0,2803.2,0.0
1682445827854349873,,1682445827,853824104,,0.020004,0,0,2803.2,0.0,0.020004,0,0,2803.2,0.0,0.020004,0,0,2803.2,0.0,0.020004,0,0,2803.2,0.0
1682445827874812544,,1682445827,874299961,,0.02002,0,0,2803.2,0.0,0.02002,0,0,2803.2,0.0,0.02002,0,0,2803.2,0.0,0.02002,0,0,2803.2,0.0
1682445827891012384,,1682445827,890491153,,0.02002,0,0,2803.2,0.0,0.02002,0,0,2803.2,0.0,0.02002,0,0,2803.2,0.0,0.02002,0,0,2803.2,0.0
1682445827911497815,,1682445827,911005935,,0.02002,0,0,2803.2,0.0,0.02002,0,0,2803.2,0.0,0.02002,0,0,2803.2,0.0,0.02002,0,0,2803.2,0.0
1682445827932084577,,1682445827,931537920,,0.02002,0,0,2803.2,0.0,0.02002,0,0,2803.2,0.0,0.02002,0,0,2803.2,0.0,0.02002,0,0,2803.2,0.0
1682445827952836632,,1682445827,952115312,,0.020016,0,0,2803.2,0.0,0.020016,0,0,2803.2,0.0,0.020016,0,0,2803.2,0.0,0.020016,0,0,2803.2,0.0
1682445827973236305,,1682445827,972629704,,0.02002,0,0,2803.2,0.0,0.02002,0,0,2803.2,0.0,0.02002,0,0,2803.2,0.0,0.02002,0,0,2803.2,0.0
1682445827993715383,,1682445827,993158449,,0.02002,0,0,2803.2,0.0,0.02002,0,0,2803.2,0.0,0.02002,0,0,2803.2,0.0,0.02002,0,0,2803.2,0.0
1682445828014487364,,1682445828,13695952,,0.020024,0,0,2803.2,0.0,0.020024,0,0,2803.2,0.0,0.020024,0,0,2803.2,0.0,0.020024,0,0,2803.2,0.0
1682445828034822001,,1682445828,34080125,,0.020036,0,0,2803.2,0.0,0.020036,0,0,2803.2,0.0,0.020036,0,0,2803.2,0.0,0.020036,0,0,2803.2,0.0
1682445828050774160,,1682445828,50185930,,0.020004,0,0,2803.2,0.0,0.020004,0,0,2803.2,0.0,0.020004,0,0,2803.2,0.0,0.020004,0,0,2803.2,0.0
1682445828071369607,,1682445828,70722415,,0.020016,0,0,2803.2,0.0,0.020016,0,0,2803.2,0.0,0.020016,0,0,2803.2,0.0,0.020016,0,0,2803.2,0.0
1682445828091802168,,1682445828,91215382,,0.020004,0,0,2803.2,0.0,0.020004,0,0,2803.2,0.0,0.020004,0,0,2803.2,0.0,0.020004,0,0,2803.2,0.0
1682445828112241914,,1682445828,111744960,,0.020016,0,0,2803.2,0.0,0.020016,0,0,2803.2,0.0,0.020016,0,0,2803.2,0.0,0.020016,0,0,2803.2,0.0
1682445828132787177,,1682445828,132261964,,0.020044,0,0,2803.2,0.0,0.020044,0,0,2803.2,0.0,0.020044,0,0,2803.2,0.0,0.020044,0,0,2803.2,0.0
1682445828153444789,,1682445828,152885947,,0.02002,0,0,2803.2,0.0,0.02002,0,0,2803.2,0.0,0.02002,0,0,2803.2,0.0,0.02002,0,0,2803.2,0.0
1682445828173863258,,1682445828,173336619,,0.02002,0,0,2803.2,0.0,0.02002,0,0,2803.2,0.0,0.02002,0,0,2803.2,0.0,0.02002,0,0,2803.2,0.0
1682445828194348670,,1682445828,193822309,,0.020016,0,0,2803.2,0.0,0.020016,0,0,2803.2,0.0,0.020016,0,0,2803.2,0.0,0.020016,0,0,2803.2,0.0
1682445828214749083,,1682445828,214278795,,0.020004,0,0,2803.2,0.0,0.020004,0,0,2803.2,0.0,0.020004,0,0,2803.2,0.0,0.020004,0,0,2803.2,0.0
1682445828230918646,,1682445828,230444655,,0.02002,0,0,2803.2,0.0,0.02002,0,0,2803.2,0.0,0.02002,0,0,2803.2,0.0,0.02002,0,0,2803.2,0.0
1682445828251501890,,1682445828,250939955,,0.02002,0,0,2803.2,0.0,0.02002,0,0,2803.2,0.0,0.02002,0,0,2803.2,0.0,0.02002,0,0,2803.2,0.0
1682445828272146336,,1682445828,271524069,,0.02002,0,0,2803.2,0.0,0.02002,0,0,2803.2,0.0,0.02002,0,0,2803.2,0.0,0.02002,0,0,2803.2,0.0
1682445828292631692,,1682445828,292034184,,0.02002,0,0,2803.2,0.0,0.02002,0,0,2803.2,0.0,0.02002,0,0,2803.2,0.0,0.02002,0,0,2803.2,0.0
1682445828313058864,,1682445828,312472208,,0.020036,0,0,2803.2,0.0,0.020036,0,0,2803.2,0.0,0.020036,0,0,2803.2,0.0,0.020036,0,0,2803.2,0.0
1682445828333801753,,1682445828,333075821,,0.02002,0,0,2803.2,0.0,0.02002,0,0,2803.2,0.0,0.02002,0,0,2803.2,0.0,0.02002,0,0,2803.2,0.0
1682445828354089890,,1682445828,353536197,,0.02002,0,0,2803.2,0.0,0.02002,0,0,2803.2,0.0,0.02002,0,0,2803.2,0.0,0.02002,0,0,2803.2,0.0
1682445828374573099,,1682445828,374065015,,0.020004,0,0,2803.2,0.0,0.020004,0,0,2803.2,0.0,0.020004,0,0,2803.2,0.0,0.020004,0,0,2803.2,0.0
1682445828394944494,,1682445828,394449558,,0.020016,0,0,2803.2,0.0,0.020016,0,0,2803.2,0.0,0.020016,0,0,2803.2,0.0,0.020016,0,0,2803.2,0.0
1682445828411075743,,1682445828,410619158,,0.020024,0,0,2803.2,0.0,0.020024,0,0,2803.2,0.0,0.020024,0,0,2803.2,0.0,0.020024,0,0,2803.2,0.0
1682445828431606450,,1682445828,431134588,,0.020036,0,0,2803.2,0.0,0.020036,0,0,2803.2,0.0,0.020036,0,0,2803.2,0.0,0.020036,0,0,2803.2,0.0
1682445828452186712,,1682445828,451707887,,0.02002,0,0,2803.2,0.0,0.02002,0,0,2803.2,0.0,0.02002,0,0,2803.2,0.0,0.02002,0,0,2803.2,0.0
1682445828472753474,,1682445828,472236502,,0.02002,0,0,2803.2,0.0,0.02002,0,0,2803.2,0.0,0.02002,0,0,2803.2,0.0,0.02002,0,0,2803.2,0.0
1682445828493249886,,1682445828,492758488,,0.02002,0,0,2803.2,0.0,0.02002,0,0,2803.2,0.0,0.02002,0,0,2803.2,0.0,0.02002,0,0,2803.2,0.0
1682445828513669651,,1682445828,513216863,,0.02002,0,0,2803.2,0.0,0.02002,0,0,2803.2,0.0,0.02002,0,0,2803.2,0.0,0.02002,0,0,2803.2,0.0
1682445828534207303,,1682445828,533754663,,0.02004,0,0,2803.2,0.0,0.02004,0,0,2803.2,0.0,0.02004,0,0,2803.2,0.0,0.02004,0,0,2803.2,0.0
1682445828554699863,,1682445828,554219186,,0.02002,0,0,2803.2,0.0,0.02002,0,0,2803.2,0.0,0.02002,0,0,2803.2,0.0,0.02002,0,0,2803.2,0.0
1682445828575259032,,1682445828,574714431,,0.02002,0,0,2803.2,0.0,0.02002,0,0,2803.2,0.0,0.02002,0,0,2803.2,0.0,0.02002,0,0,2803.2,0.0
1682445828591634147,,1682445828,590923604,,0.020024,0,0,2803.2,0.0,0.020024,0,0,2803.2,0.0,0.020024,0,0,2803.2,0.0,0.020024,0,0,2803.2,0.0
1682445828612098467,,1682445828,611461312,,0.02002,0,0,2803.2,0.0,0.02002,0,0,2803.2,0.0,0.02002,0,0,2803.2,0.0,0.02002,0,0,2803.2,0.0
1682445828632805264,,1682445828,631964427,,0.020016,0,0,2803.2,0.0,0.020016,0,0,2803.2,0.0,0.020016,0,0,2803.2,0.0,0.020016,0,0,2803.2,0.0
1682445828653192677,,1682445828,652406099,,0.02002,0,0,2803.2,0.0,0.02002,0,0,2803.2,0.0,0.02002,0,0,2803.2,0.0,0.02002,0,0,2803.2,0.0
1682445828673621220,,1682445828,672947843,,0.020024,0,0,2803.2,0.0,0.020024,0,0,2803.2,0.0,0.020024,0,0,2803.2,0.0,0.020024,0,0,2803.2,0.0
1682445828694028559,,1682445828,693428366,,0.020036,0,0,2803.2,0.0,0.020036,0,0,2803.2,0.0,0.020036,0,0,2803.2,0.0,0.020036,0,0,2803.2,0.0
1682445828714508489,,1682445828,713936851,,0.02002,0,0,2803.2,0.0,0.02002,0,0,2803.2,0.0,0.02002,0,0,2803.2,0.0,0.02002,0,0,2803.2,0.0
1682445828735027530,,1682445828,734389023,,0.020004,0,0,2803.2,0.0,0.020004,0,0,2803.2,0.0,0.020004,0,0,2803.2,0.0,0.020004,0,0,2803.2,0.0
1682445828751051077,,1682445828,750507217,,0.02002,0,0,2803.2,0.0,0.02002,0,0,2803.2,0.0,0.02002,0,0,2803.2,0.0,0.02002,0,0,2803.2,0.0
1682445828771866631,,1682445828,771282697,,0.020016,0,0,2803.2,0.0,0.020016,0,0,2803.2,0.0,0.020016,0,0,2803.2,0.0,0.020016,0,0,2803.2,0.0
1682445828792149306,,1682445828,791608316,,0.02002,0,0,2803.2,0.0,0.02002,0,0,2803.2,0.0,0.02002,0,0,2803.2,0.0,0.02002,0,0,2803.2,0.0
1682445828812645681,,1682445828,812136690,,0.020004,0,0,2803.2,0.0,0.020004,0,0,2803.2,0.0,0.020004,0,0,2803.2,0.0,0.020004,0,0,2803.2,0.0
1682445828833212073,,1682445828,832692489,,0.020036,0,0,2803.2,0.0,0.020036,0,0,2803.2,0.0,0.020036,0,0,2803.2,0.0,0.020036,0,0,2803.2,0.0
1682445828853570413,,1682445828,853141383,,0.020004,0,0,2803.2,0.0,0.020004,0,0,2803.2,0.0,0.020004,0,0,2803.2,0.0,0.020004,0,0,2803.2,0.0
1682445828874067565,,1682445828,873637536,,0.020016,0,0,2803.2,0.0,0.020016,0,0,2803.2,0.0,0.020016,0,0,2803.2,0.0,0.020016,0,0,2803.2,0.0
1682445828894571699,,1682445828,894134540,,0.020004,0,0,2803.2,0.0,0.020004,0,0,2803.2,0.0,0.020004,0,0,2803.2,0.0,0.020004,0,0,2803.2,0.0
1682445828915006760,,1682445828,914587564,,0.02002,0,0,2803.2,0.0,0.02002,0,0,2803.2,0.0,0.02002,0,0,2803.2,0.0,0.02002,0,0,2803.2,0.0
1682445828931170193,,1682445828,930762015,,0.02002,0,0,2803.2,0.0,0.02002,0,0,2803.2,0.0,0.02002,0,0,2803.2,0.0,0.02002,0,0,2803.2,0.0
1682445828951796862,,1682445828,951320944,,0.02002,0,0,2803.2,0.0,0.02002,0,0,2803.2,0.0,0.02002,0,0,2803.2,0.0,0.02002,0,0,2803.2,0.0
1682445828972583009,,1682445828,971975483,,0.020036,0,0,2803.2,0.0,0.020036,0,0,2803.2,0.0,0.020036,0,0,2803.2,0.0,0.020036,0,0,2803.2,0.0
1682445828992930775,,1682445828,992382063,,0.020024,0,0,2803.2,0.0,0.020024,0,0,2803.2,0.0,0.020024,0,0,2803.2,0.0,0.020024,0,0,2803.2,0.0
1682445829013391484,,1682445829,12875308,,0.02002,0,0,2803.2,0.0,0.02002,0,0,2803.2,0.0,0.02002,0,0,2803.2,0.0,0.02002,0,0,2803.2,0.0
1682445829033935006,,1682445829,33389756,,0.020016,0,0,2803.2,0.0,0.020016,0,0,2803.2,0.0,0.020016,0,0,2803.2,0.0,0.020016,0,0,2803.2,0.0
1682445829054413084,,1682445829,53901075,,0.02002,0,0,2803.2,0.0,0.02002,0,0,2803.2,0.0,0.02002,0,0,2803.2,0.0,0.02002,0,0,2803.2,0.0
1682445829074806720,,1682445829,74339617,,0.020004,0,0,2803.2,0.0,0.020004,0,0,2803.2,0.0,0.020004,0,0,2803.2,0.0,0.020004,0,0,2803.2,0.0
1682445829095295484,,1682445829,94807215,,0.02002,0,0,2803.2,0.0,0.02002,0,0,2803.2,0.0,0.02002,0,0,2803.2,0.0,0.02002,0,0,2803.2,0.0
1682445829111465917,,1682445829,111013703,,0.020016,0,0,2803.2,0.0,0.020016,0,0,2803.2,0.0,0.020016,0,0,2803.2,0.0,0.020016,0,0,2803.2,0.0
1682445829132082030,,1682445829,131542762,,0.020004,0,0,2803.2,0.0,0.020004,0,0,2803.2,0.0,0.020004,0,0,2803.2,0.0,0.020004,0,0,2803.2,0.0
1682445829152776790,,1682445829,152225097,,0.020016,0,0,2803.2,0.0,0.020016,0,0,2803.2,0.0,0.020016,0,0,2803.2,0.0,0.020016,0,0,2803.2,0.0
1682445829173169759,,1682445829,172613306,,0.02002,0,0,2803.2,0.0,0.02002,0,0,2803.2,0.0,0.02002,0,0,2803.2,0.0,0.02002,0,0,2803.2,0.0
1682445829193603987,,1682445829,193115625,,0.020004,0,0,2803.2,0.0,0.020004,0,0,2803.2,0.0,0.020004,0,0,2803.2,0.0,0.020004,0,0,2803.2,0.0
1682445829214104787,,1682445829,213611148,,0.02002,0,0,2803.2,0.0,0.02002,0,0,2803.2,0.0,0.02002,0,0,2803.2,0.0,0.02002,0,0,2803.2,0.0
1682445829234674161,,1682445829,234135207,,0.02002,0,0,2803.2,0.0,0.02002,0,0,2803.2,0.0,0.02002,0,0,2803.2,0.0,0.02002,0,0,2803.2,0.0
1682445829255225571,,1682445829,254650545,,0.02002,0,0,2803.2,0.0,0.02002,0,0,2803.2,0.0,0.02002,0,0,2803.2,0.0,0.02002,0,0,2803.2,0.0
1682445829271141176,,1682445829,270673499,,0.020016,0,0,2803.2,0.0,0.020016,0,0,2803.2,0.0,0.020016,0,0,2803.2,0.0,0.020016,0,0,2803.2,0.0
1682445829291715253,,1682445829,291211669,,0.020024,0,0,2803.2,0.0,0.020024,0,0,2803.2,0.0,0.020024,0,0,2803.2,0.0,0.020024,0,0,2803.2,0.0
1682445829312379569,,1682445829,311810450,,0.020016,0,0,2803.2,0.0,0.020016,0,0,2803.2,0.0,0.020016,0,0,2803.2,0.0,0.020016,0,0,2803.2,0.0
1682445829334258141,,1682445829,332360008,,0.02004,0,0,2803.2,0.0,0.02004,0,0,2803.2,0.0,0.02004,0,0,2803.2,0.0,0.02004,0,0,2803.2,0.0
1682445829353488057,,1682445829,352918567,,0.02002,0,0,2803.2,0.0,0.02002,0,0,2803.2,0.0,0.02002,0,0,2803.2,0.0,0.02002,0,0,2803.2,0.0
1682445829373739195,,1682445829,373287092,,0.02002,0,0,2803.2,0.0,0.02002,0,0,2803.2,0.0,0.02002,0,0,2803.2,0.0,0.02002,0,0,2803.2,0.0
1682445829394232237,,1682445829,393816633,,0.02002,0,0,2803.2,0.0,0.02002,0,0,2803.2,0.0,0.02002,0,0,2803.2,0.0,0.02002,0,0,2803.2,0.0
1682445829414659946,,1682445829,414246786,,0.020004,0,0,2803.2,0.0,0.020004,0,0,2803.2,0.0,0.020004,0,0,2803.2,0.0,0.020004,0,0,2803.2,0.0
1682445829435164135,,1682445829,434728717,,0.020036,0,0,2803.2,0.0,0.020036,0,0,2803.2,0.0,0.020036,0,0,2803.2,0.0,0.020036,0,0,2803.2,0.0
1682445829451288736,,1682445829,450847392,,0.020024,0,0,2803.2,0.0,0.020024,0,0,2803.2,0.0,0.020024,0,0,2803.2,0.0,0.020024,0,0,2803.2,0.0
1682445829472115901,,1682445829,471509615,,0.02002,0,0,2803.2,0.0,0.02002,0,0,2803.2,0.0,0.02002,0,0,2803.2,0.0,0.02002,0,0,2803.2,0.0
1682445829492708607,,1682445829,492072489,,0.02002,0,0,2803.2,0.0,0.02002,0,0,2803.2,0.0,0.02002,0,0,2803.2,0.0,0.02002,0,0,2803.2,0.0
1682445829513172853,,1682445829,512588974,,0.02002,0,0,2803.2,0.0,0.02002,0,0,2803.2,0.0,0.02002,0,0,2803.2,0.0,0.02002,0,0,2803.2,0.0
1682445829533698486,,1682445829,533082071,,0.020016,0,0,2803.2,0.0,0.020016,0,0,2803.2,0.0,0.020016,0,0,2803.2,0.0,0.020016,0,0,2803.2,0.0
1682445829554078363,,1682445829,553542724,,0.020004,0,0,2803.2,0.0,0.020004,0,0,2803.2,0.0,0.020004,0,0,2803.2,0.0,0.020004,0,0,2803.2,0.0
1682445829574442795,,1682445829,574006340,,0.020016,0,0,2803.2,0.0,0.020016,0,0,2803.2,0.0,0.020016,0,0,2803.2,0.0,0.020016,0,0,2803.2,0.0
1682445829594895819,,1682445829,594453123,,0.02002,0,0,2803.2,0.0,0.02002,0,0,2803.2,0.0,0.02002,0,0,2803.2,0.0,0.02002,0,0,2803.2,0.0
1682445829615329435,,1682445829,614906073,,0.020004,0,0,2803.2,0.0,0.020004,0,0,2803.2,0.0,0.020004,0,0,2803.2,0.0,0.020004,0,0,2803.2,0.0
1682445829631712569,,1682445829,631218466,,0.020016,0,0,2803.2,0.0,0.020016,0,0,2803.2,0.0,0.020016,0,0,2803.2,0.0,0.020016,0,0,2803.2,0.0
1682445829652301090,,1682445829,651706897,,0.020004,0,0,2803.2,0.0,0.020004,0,0,2803.2,0.0,0.020004,0,0,2803.2,0.0,0.020004,0,0,2803.2,0.0
1682445829672717447,,1682445829,672210604,,0.020016,0,0,2803.2,0.0,0.020016,0,0,2803.2,0.0,0.020016,0,0,2803.2,0.0,0.020016,0,0,2803.2,0.0
1682445829693187637,,1682445829,692707738,,0.02002,0,0,2803.2,0.0,0.02002,0,0,2803.2,0.0,0.02002,0,0,2803.2,0.0,0.02002,0,0,2803.2,0.0
1682445829713687123,,1682445829,713230649,,0.020004,0,0,2803.2,0.0,0.020004,0,0,2803.2,0.0,0.020004,0,0,2803.2,0.0,0.020004,0,0,2803.2,0.0
1682445829734197905,,1682445829,733731857,,0.020036,0,0,2803.2,0.0,0.020036,0,0,2803.2,0.0,0.020036,0,0,2803.2,0.0,0.020036,0,0,2803.2,0.0
1682445829754804499,,1682445829,754282416,,0.020004,0,0,2803.2,0.0,0.020004,0,0,2803.2,0.0,0.020004,0,0,2803.2,0.0,0.020004,0,0,2803.2,0.0
1682445829775248264,,1682445829,774725144,,0.020016,0,0,2803.2,0.0,0.020016,0,0,2803.2,0.0,0.020016,0,0,2803.2,0.0,0.020016,0,0,2803.2,0.0
1682445829791516603,,1682445829,790954983,,0.020024,0,0,2803.2,0.0,0.020024,0,0,2803.2,0.0,0.020024,0,0,2803.2,0.0,0.020024,0,0,2803.2,0.0
1682445829812171808,,1682445829,811459025,,0.020016,0,0,2803.2,0.0,0.020016,0,0,2803.2,0.0,0.020016,0,0,2803.2,0.0,0.020016,0,0,2803.2,0.0
1682445829832731570,,1682445829,832093545,,0.020004,0,0,2803.2,0.0,0.020004,0,0,2803.2,0.0,0.020004,0,0,2803.2,0.0,0.020004,0,0,2803.2,0.0
1682445829853064596,,1682445829,852475755,,0.02002,0,0,2803.2,0.0,0.02002,0,0,2803.2,0.0,0.02002,0,0,2803.2,0.0,0.02002,0,0,2803.2,0.0
1682445829873304698,,1682445829,872893316,,0.020016,0,0,2803.2,0.0,0.020016,0,0,2803.2,0.0,0.020016,0,0,2803.2,0.0,0.020016,0,0,2803.2,0.0
1682445829893792313,,1682445829,893395431,,0.020004,0,0,2803.2,0.0,0.020004,0,0,2803.2,0.0,0.020004,0,0,2803.2,0.0,0.020004,0,0,2803.2,0.0
1682445829914430611,,1682445829,913925898,,0.02002,0,0,2803.2,0.0,0.02002,0,0,2803.2,0.0,0.02002,0,0,2803.2,0.0,0.02002,0,0,2803.2,0.0
1682445829934824358,,1682445829,934431772,,0.020016,0,0,2803.2,0.0,0.020016,0,0,2803.2,0.0,0.020016,0,0,2803.2,0.0,0.020016,0,0,2803.2,0.0
1682445829955449601,,1682445829,954904944,,0.020024,0,0,2803.2,0.0,0.020024,0,0,2803.2,0.0,0.020024,0,0,2803.2,0.0,0.020024,0,0,2803.2,0.0
1682445829972865845,,1682445829,972128229,,0.02002,0,0,2803.2,0.0,0.02002,0,0,2803.2,0.0,0.02002,0,0,2803.2,0.0,0.02002,0,0,2803.2,0.0
1682445829992329997,,1682445829,991658602,,0.020016,0,0,2803.2,0.0,0.020016,0,0,2803.2,0.0,0.020016,0,0,2803.2,0.0,0.020016,0,0,2803.2,0.0
1682445830012796021,,1682445830,12190531,,0.02002,0,0,2803.2,0.0,0.02002,0,0,2803.2,0.0,0.02002,0,0,2803.2,0.0,0.02002,0,0,2803.2,0.0
1682445830033256229,,1682445830,32691202,,0.020004,0,0,2803.2,0.0,0.020004,0,0,2803.2,0.0,0.020004,0,0,2803.2,0.0,0.020004,0,0,2803.2,0.0
1682445830053732845,,1682445830,53166559,,0.02002,0,0,2803.2,0.0,0.02002,0,0,2803.2,0.0,0.02002,0,0,2803.2,0.0,0.02002,0,0,2803.2,0.0
1682445830074236738,,1682445830,73681711,,0.02002,0,0,2803.2,0.0,0.02002,0,0,2803.2,0.0,0.02002,0,0,2803.2,0.0,0.02002,0,0,2803.2,0.0
1682445830094954720,,1682445830,94299046,,0.02002,0,0,2803.2,0.0,0.02002,0,0,2803.2,0.0,0.02002,0,0,2803.2,0.0,0.02002,0,0,2803.2,0.0
1682445830115116286,,1682445830,114641664,,0.020016,0,0,2803.2,0.0,0.020016,0,0,2803.2,0.0,0.020016,0,0,2803.2,0.0,0.020016,0,0,2803.2,0.0
1682445830131532029,,1682445830,130887059,,0.02002,0,0,2803.2,0.0,0.02002,0,0,2803.2,0.0,0.02002,0,0,2803.2,0.0,0.02002,0,0,2803.2,0.0
1682445830151782408,,1682445830,151310120,,0.020004,0,0,2803.2,0.0,0.020004,0,0,2803.2,0.0,0.020004,0,0,2803.2,0.0,0.020004,0,0,2803.2,0.0
1682445830172423892,,1682445830,171914956,,0.02004,0,0,2803.2,0.0,0.02004,0,0,2803.2,0.0,0.02004,0,0,2803.2,0.0,0.02004,0,0,2803.2,0.0
1682445830192919766,,1682445830,192386350,,0.020036,0,0,2803.2,0.0,0.020036,0,0,2803.2,0.0,0.020036,0,0,2803.2,0.0,0.020036,0,0,2803.2,0.0
1682445830213494362,,1682445830,212923631,,0.02002,0,0,2803.2,0.0,0.02002,0,0,2803.2,0.0,0.02002,0,0,2803.2,0.0,0.02002,0,0,2803.2,0.0
1682445830233897553,,1682445830,233366803,,0.020004,0,0,2803.2,0.0,0.020004,0,0,2803.2,0.0,0.020004,0,0,2803.2,0.0,0.020004,0,0,2803.2,0.0
1682445830254442223,,1682445830,253966509,,0.02002,0,0,2803.2,0.0,0.02002,0,0,2803.2,0.0,0.02002,0,0,2803.2,0.0,0.02002,0,0,2803.2,0.0
1682445830274899654,,1682445830,274425440,,0.02002,0,0,2803.2,0.0,0.02002,0,0,2803.2,0.0,0.02002,0,0,2803.2,0.0,0.02002,0,0,2803.2,0.0
1682445830295289512,,1682445830,294828186,,0.02002,0,0,2803.2,0.0,0.02002,0,0,2803.2,0.0,0.02002,0,0,2803.2,0.0,0.02002,0,0,2803.2,0.0
1682445830311497981,,1682445830,311013953,,0.020036,0,0,2803.2,0.0,0.020036,0,0,2803.2,0.0,0.020036,0,0,2803.2,0.0,0.020036,0,0,2803.2,0.0
1682445830332257296,,1682445830,331635622,,0.02002,0,0,2803.2,0.0,0.02002,0,0,2803.2,0.0,0.02002,0,0,2803.2,0.0,0.02002,0,0,2803.2,0.0
1682445830352880668,,1682445830,352237087,,0.020004,0,0,2803.2,0.0,0.020004,0,0,2803.2,0.0,0.020004,0,0,2803.2,0.0,0.020004,0,0,2803.2,0.0
1682445830373095585,,1682445830,372588057,,0.02002,0,0,2803.2,0.0,0.02002,0,0,2803.2,0.0,0.02002,0,0,2803.2,0.0,0.02002,0,0,2803.2,0.0
1682445830393658977,,1682445830,393134153,,0.020016,0,0,2803.2,0.0,0.020016,0,0,2803.2,0.0,0.020016,0,0,2803.2,0.0,0.020016,0,0,2803.2,0.0
1682445830414130518,,1682445830,413614435,,0.02002,0,0,2803.2,0.0,0.02002,0,0,2803.2,0.0,0.02002,0,0,2803.2,0.0,0.02002,0,0,2803.2,0.0
1682445830434639171,,1682445830,434125661,,0.02002,0,0,2803.2,0.0,0.02002,0,0,2803.2,0.0,0.02002,0,0,2803.2,0.0,0.02002,0,0,2803.2,0.0
1682445830455074806,,1682445830,454582592,,0.020024,0,0,2803.2,0.0,0.020024,0,0,2803.2,0.0,0.020024,0,0,2803.2,0.0,0.020024,0,0,2803.2,0.0
1682445830475474256,,1682445830,475024653,,0.02002,0,0,2803.2,0.0,0.02002,0,0,2803.2,0.0,0.02002,0,0,2803.2,0.0,0.02002,0,0,2803.2,0.0
1682445830491666059,,1682445830,491256456,,0.02002,0,0,2803.2,0.0,0.02002,0,0,2803.2,0.0,0.02002,0,0,2803.2,0.0,0.02002,0,0,2803.2,0.0
1682445830512246025,,1682445830,511764793,,0.020016,0,0,2803.2,0.0,0.020016,0,0,2803.2,0.0,0.020016,0,0,2803.2,0.0,0.020016,0,0,2803.2,0.0
1682445830532801176,,1682445830,532327333,,0.02002,0,0,2803.2,0.0,0.02002,0,0,2803.2,0.0,0.02002,0,0,2803.2,0.0,0.02002,0,0,2803.2,0.0
1682445830553307088,,1682445830,552822319,,0.020004,0,0,2803.2,0.0,0.020004,0,0,2803.2,0.0,0.020004,0,0,2803.2,0.0,0.020004,0,0,2803.2,0.0
1682445830573835332,,1682445830,573331286,,0.02004,0,0,2803.2,0.0,0.02004,0,0,2803.2,0.0,0.02004,0,0,2803.2,0.0,0.02004,0,0,2803.2,0.0
1682445830594300170,,1682445830,593835494,,0.020016,0,0,2803.2,0.0,0.020016,0,0,2803.2,0.0,0.020016,0,0,2803.2,0.0,0.020016,0,0,2803.2,0.0
1682445830614827674,,1682445830,614349109,,0.02002,0,0,2803.2,0.0,0.02002,0,0,2803.2,0.0,0.02002,0,0,2803.2,0.0,0.02002,0,0,2803.2,0.0
1682445830635249495,,1682445830,634791132,,0.020004,0,0,2803.2,0.0,0.020004,0,0,2803.2,0.0,0.020004,0,0,2803.2,0.0,0.020004,0,0,2803.2,0.0
1682445830655707925,,1682445830,655238656,,0.02002,0,0,2803.2,0.0,0.02002,0,0,2803.2,0.0,0.02002,0,0,2803.2,0.0,0.02002,0,0,2803.2,0.0
1682445830672304833,,1682445830,671617382,,0.020016,0,0,2803.2,0.0,0.020016,0,0,2803.2,0.0,0.020016,0,0,2803.2,0.0,0.020016,0,0,2803.2,0.0
1682445830692718635,,1682445830,692159867,,0.02002,0,0,2803.2,0.0,0.02002,0,0,2803.2,0.0,0.02002,0,0,2803.2,0.0,0.02002,0,0,2803.2,0.0
1682445830713205565,,1682445830,712590224,,0.020004,0,0,2803.2,0.0,0.020004,0,0,2803.2,0.0,0.020004,0,0,2803.2,0.0,0.020004,0,0,2803.2,0.0
1682445830733616960,,1682445830,733073655,,0.020036,0,0,2803.2,0.0,0.020036,0,0,2803.2,0.0,0.020036,0,0,2803.2,0.0,0.020036,0,0,2803.2,0.0
1682445830754085520,,1682445830,753519141,,0.020004,0,0,2803.2,0.0,0.020004,0,0,2803.2,0.0,0.020004,0,0,2803.2,0.0,0.020004,0,0,2803.2,0.0
1682445830774496415,,1682445830,774060904,,0.020036,0,0,2803.2,0.0,0.020036,0,0,2803.2,0.0,0.020036,0,0,2803.2,0.0,0.020036,0,0,2803.2,0.0
1682445830794993660,,1682445830,794567334,,0.02002,0,0,2803.2,0.0,0.02002,0,0,2803.2,0.0,0.02002,0,0,2803.2,0.0,0.02002,0,0,2803.2,0.0
1682445830815411165,,1682445830,815008561,,0.02002,0,0,2803.2,0.0,0.02002,0,0,2803.2,0.0,0.02002,0,0,2803.2,0.0,0.02002,0,0,2803.2,0.0
1682445830831871612,,1682445830,831208605,,0.020004,0,0,2803.2,0.0,0.020004,0,0,2803.2,0.0,0.020004,0,0,2803.2,0.0,0.020004,0,0,2803.2,0.0
1682445830852151713,,1682445830,851681517,,0.020036,0,0,2803.2,0.0,0.020036,0,0,2803.2,0.0,0.020036,0,0,2803.2,0.0,0.020036,0,0,2803.2,0.0
1682445830872803047,,1682445830,872255039,,0.020024,0,0,2803.2,0.0,0.020024,0,0,2803.2,0.0,0.020024,0,0,2803.2,0.0,0.020024,0,0,2803.2,0.0
1682445830893340940,,1682445830,892773469,,0.020016,0,0,2803.2,0.0,0.020016,0,0,2803.2,0.0,0.020016,0,0,2803.2,0.0,0.020016,0,0,2803.2,0.0
1682445830913891591,,1682445830,913329231,,0.020024,0,0,2803.2,0.0,0.020024,0,0,2803.2,0.0,0.020024,0,0,2803.2,0.0,0.020024,0,0,2803.2,0.0
1682445830934367170,,1682445830,933793365,,0.020036,0,0,2803.2,0.0,0.020036,0,0,2803.2,0.0,0.020036,0,0,2803.2,0.0,0.020036,0,0,2803.2,0.0
1682445830954838527,,1682445830,954268833,,0.020004,0,0,2803.2,0.0,0.020004,0,0,2803.2,0.0,0.020004,0,0,2803.2,0.0,0.020004,0,0,2803.2,0.0
1682445830975248588,,1682445830,974783541,,0.020036,0,0,2803.2,0.0,0.020036,0,0,2803.2,0.0,0.020036,0,0,2803.2,0.0,0.020036,0,0,2803.2,0.0
1682445830995708278,,1682445830,995243620,,0.02002,0,0,2803.2,0.0,0.02002,0,0,2803.2,0.0,0.02002,0,0,2803.2,0.0,0.02002,0,0,2803.2,0.0
1682445831011973673,,1682445831,11460274,,0.02002,0,0,2803.2,0.0,0.02002,0,0,2803.2,0.0,0.02002,0,0,2803.2,0.0,0.02002,0,0,2803.2,0.0
1682445831032425733,,1682445831,31950797,,0.020024,0,0,2803.2,0.0,0.020024,0,0,2803.2,0.0,0.020024,0,0,2803.2,0.0,0.020024,0,0,2803.2,0.0
1682445831052962737,,1682445831,52458098,,0.020016,0,0,2803.2,0.0,0.020016,0,0,2803.2,0.0,0.020016,0,0,2803.2,0.0,0.020016,0,0,2803.2,0.0
1682445831073476685,,1682445831,72957139,,0.020024,0,0,2803.2,0.0,0.020024,0,0,2803.2,0.0,0.020024,0,0,2803.2,0.0,0.020024,0,0,2803.2,0.0
1682445831094112279,,1682445831,93556197,,0.020016,0,0,2803.2,0.0,0.020016,0,0,2803.2,0.0,0.020016,0,0,2803.2,0.0,0.020016,0,0,2803.2,0.0
1682445831114483138,,1682445831,113997572,,0.020004,0,0,2803.2,0.0,0.020004,0,0,2803.2,0.0,0.020004,0,0,2803.2,0.0,0.020004,0,0,2803.2,0.0
1682445831134990790,,1682445831,134494688,,0.02002,0,0,2803.2,0.0,0.02002,0,0,2803.2,0.0,0.02002,0,0,2803.2,0.0,0.02002,0,0,2803.2,0.0
1682445831155462647,,1682445831,154974229,,0.02002,0,0,2803.2,0.0,0.02002,0,0,2803.2,0.0,0.02002,0,0,2803.2,0.0,0.02002,0,0,2803.2,0.0
1682445831175815579,,1682445831,175382735,,0.020016,0,0,2803.2,0.0,0.020016,0,0,2803.2,0.0,0.020016,0,0,2803.2,0.0,0.020016,0,0,2803.2,0.0
1682445831192038160,,1682445831,191601520,,0.020004,0,0,2803.2,0.0,0.020004,0,0,2803.2,0.0,0.020004,0,0,2803.2,0.0,0.020004,0,0,2803.2,0.0
1682445831212522183,,1682445831,212107024,,0.020036,0,0,2803.2,0.0,0.020036,0,0,2803.2,0.0,0.020036,0,0,2803.2,0.0,0.020036,0,0,2803.2,0.0
1682445831233189703,,1682445831,232709359,,0.020024,0,0,2803.2,0.0,0.020024,0,0,2803.2,0.0,0.020024,0,0,2803.2,0.0,0.020024,0,0,2803.2,0.0
1682445831253697892,,1682445831,253188234,,0.020016,0,0,2803.2,0.0,0.020016,0,0,2803.2,0.0,0.020016,0,0,2803.2,0.0,0.020016,0,0,2803.2,0.0
1682445831274238395,,1682445831,273713219,,0.020004,0,0,2803.2,0.0,0.020004,0,0,2803.2,0.0,0.020004,0,0,2803.2,0.0,0.020004,0,0,2803.2,0.0
1682445831294700030,,1682445831,294216075,,0.02002,0,0,2803.2,0.0,0.02002,0,0,2803.2,0.0,0.02002,0,0,2803.2,0.0,0.02002,0,0,2803.2,0.0
1682445831315190571,,1682445831,314724228,,0.02002,0,0,2803.2,0.0,0.02002,0,0,2803.2,0.0,0.02002,0,0,2803.2,0.0,0.02002,0,0,2803.2,0.0
1682445831336011866,,1682445831,335360600,,0.020016,0,0,2803.2,0.0,0.020016,0,0,2803.2,0.0,0.020016,0,0,2803.2,0.0,0.020016,0,0,2803.2,0.0
1682445831351799251,,1682445831,351321407,,0.020024,0,0,2803.2,0.0,0.020024,0,0,2803.2,0.0,0.020024,0,0,2803.2,0.0,0.020024,0,0,2803.2,0.0
1682445831372455456,,1682445831,371912188,,0.020036,0,0,2803.2,0.0,0.020036,0,0,2803.2,0.0,0.020036,0,0,2803.2,0.0,0.020036,0,0,2803.2,0.0
1682445831392907590,,1682445831,392388840,,0.02002,0,0,2803.2,0.0,0.02002,0,0,2803.2,0.0,0.02002,0,0,2803.2,0.0,0.02002,0,0,2803.2,0.0
1682445831413427298,,1682445831,412930159,,0.02002,0,0,2803.2,0.0,0.02002,0,0,2803.2,0.0,0.02002,0,0,2803.2,0.0,0.02002,0,0,2803.2,0.0
1682445831433870340,,1682445831,433391478,,0.020024,0,0,2803.2,0.0,0.020024,0,0,2803.2,0.0,0.020024,0,0,2803.2,0.0,0.020024,0,0,2803.2,0.0
1682445831454382474,,1682445831,453908334,,0.02002,0,0,2803.2,0.0,0.02002,0,0,2803.2,0.0,0.02002,0,0,2803.2,0.0,0.02002,0,0,2803.2,0.0
1682445831474917940,,1682445831,474441523,,0.020016,0,0,2803.2,0.0,0.020016,0,0,2803.2,0.0,0.020016,0,0,2803.2,0.0,0.020016,0,0,2803.2,0.0
1682445831495405667,,1682445831,494939416,,0.02002,0,0,2803.2,0.0,0.02002,0,0,2803.2,0.0,0.02002,0,0,2803.2,0.0,0.02002,0,0,2803.2,0.0
1682445831515950392,,1682445831,515412772,,0.020004,0,0,2803.2,0.0,0.020004,0,0,2803.2,0.0,0.020004,0,0,2803.2,0.0,0.020004,0,0,2803.2,0.0
1682445831532202213,,1682445831,531609557,,0.020016,0,0,2803.2,0.0,0.020016,0,0,2803.2,0.0,0.020016,0,0,2803.2,0.0,0.020016,0,0,2803.2,0.0
1682445831552713236,,1682445831,552170597,,0.02002,0,0,2803.2,0.0,0.02002,0,0,2803.2,0.0,0.02002,0,0,2803.2,0.0,0.02002,0,0,2803.2,0.0
1682445831573124704,,1682445831,572620325,,0.02002,0,0,2803.2,0.0,0.02002,0,0,2803.2,0.0,0.02002,0,0,2803.2,0.0,0.02002,0,0,2803.2,0.0
1682445831593869186,,1682445831,593271530,,0.02002,0,0,2803.2,0.0,0.02002,0,0,2803.2,0.0,0.02002,0,0,2803.2,0.0,0.02002,0,0,2803.2,0.0
1682445831614198971,,1682445831,613677943,,0.020004,0,0,2803.2,0.0,0.020004,0,0,2803.2,0.0,0.020004,0,0,2803.2,0.0,0.020004,0,0,2803.2,0.0
1682445831634620347,,1682445831,634137929,,0.02002,0,0,2803.2,0.0,0.02002,0,0,2803.2,0.0,0.02002,0,0,2803.2,0.0,0.02002,0,0,2803.2,0.0
1682445831655167794,,1682445831,654663970,,0.02002,0,0,2803.2,0.0,0.02002,0,0,2803.2,0.0,0.02002,0,0,2803.2,0.0,0.02002,0,0,2803.2,0.0
1682445831675548745,,1682445831,675101401,,0.020036,0,0,2803.2,0.0,0.020036,0,0,2803.2,0.0,0.020036,0,0,2803.2,0.0,0.020036,0,0,2803.2,0.0
1682445831696129692,,1682445831,695638479,,0.02002,0,0,2803.2,0.0,0.02002,0,0,2803.2,0.0,0.02002,0,0,2803.2,0.0,0.02002,0,0,2803.2,0.0
1682445831712405328,,1682445831,711888596,,0.020004,0,0,2803.2,0.0,0.020004,0,0,2803.2,0.0,0.020004,0,0,2803.2,0.0,0.020004,0,0,2803.2,0.0
1682445831732733316,,1682445831,732287565,,0.020016,0,0,2803.2,0.0,0.020016,0,0,2803.2,0.0,0.020016,0,0,2803.2,0.0,0.020016,0,0,2803.2,0.0
1682445831753257561,,1682445831,752746403,,0.020004,0,0,2803.2,0.0,0.020004,0,0,2803.2,0.0,0.020004,0,0,2803.2,0.0,0.020004,0,0,2803.2,0.0
1682445831773901488,,1682445831,773363776,,0.020056,0,0,2803.2,0.0,0.020056,0,0,2803.2,0.0,0.020056,0,0,2803.2,0.0,0.020056,0,0,2803.2,0.0
1682445831794283180,,1682445831,793829410,,0.02002,0,0,2803.2,0.0,0.02002,0,0,2803.2,0.0,0.02002,0,0,2803.2,0.0,0.02002,0,0,2803.2,0.0
1682445831814804795,,1682445831,814350118,,0.02002,0,0,2803.2,0.0,0.02002,0,0,2803.2,0.0,0.02002,0,0,2803.2,0.0,0.02002,0,0,2803.2,0.0
1682445831835915788,,1682445831,834968972,,0.02002,0,0,2803.2,0.0,0.02002,0,0,2803.2,0.0,0.02002,0,0,2803.2,0.0,0.02002,0,0,2803.2,0.0
1682445831858715381,,1682445831,858170835,,0.02002,0,0,2803.2,0.0,0.02002,0,0,2803.2,0.0,0.02002,0,0,2803.2,0.0,0.02002,0,0,2803.2,0.0
1682445831876681652,,1682445831,876010239,,0.02002,0,0,2803.2,0.0,0.02002,0,0,2803.2,0.0,0.02002,0,0,2803.2,0.0,0.02002,0,0,2803.2,0.0
1682445831896972197,,1682445831,896430522,,0.02068,0,0,2803.2,0.0,0.02068,0,0,2803.2,0.0,0.02068,0,0,2803.2,0.0,0.02068,0,0,2803.2,0.0
1682445831913147279,,1682445831,912579085,,0.020004,0,0,2803.2,0.0,0.020004,0,0,2803.2,0.0,0.020004,0,0,2803.2,0.0,0.020004,0,0,2803.2,0.0
1682445831933507915,,1682445831,933034368,,0.02002,0,0,2803.2,0.0,0.02002,0,0,2803.2,0.0,0.02002,0,0,2803.2,0.0,0.02002,0,0,2803.2,0.0
1682445831953992105,,1682445831,953518984,,0.02002,0,0,2803.2,0.0,0.02002,0,0,2803.2,0.0,0.02002,0,0,2803.2,0.0,0.02002,0,0,2803.2,0.0
1682445831974415962,,1682445831,974024525,,0.020036,0,0,2803.2,0.0,0.020036,0,0,2803.2,0.0,0.020036,0,0,2803.2,0.0,0.020036,0,0,2803.2,0.0
1682445831994925596,,1682445831,994505529,,0.020004,0,0,2803.2,0.0,0.020004,0,0,2803.2,0.0,0.020004,0,0,2803.2,0.0,0.020004,0,0,2803.2,0.0
1682445832015418674,,1682445832,15030403,,0.020016,0,0,2803.2,0.0,0.020016,0,0,2803.2,0.0,0.020016,0,0,2803.2,0.0,0.020016,0,0,2803.2,0.0
1682445832035943419,,1682445832,35550018,,0.020024,0,0,2803.2,0.0,0.020024,0,0,2803.2,0.0,0.020024,0,0,2803.2,0.0,0.020024,0,0,2803.2,0.0
1682445832056533218,,1682445832,56076948,,0.020036,0,0,2803.2,0.0,0.020036,0,0,2803.2,0.0,0.020036,0,0,2803.2,0.0,0.020036,0,0,2803.2,0.0
1682445832072902888,,1682445832,72268770,,0.020024,0,0,2803.2,0.0,0.020024,0,0,2803.2,0.0,0.020024,0,0,2803.2,0.0,0.020024,0,0,2803.2,0.0
1682445832093381615,,1682445832,92748034,,0.020016,0,0,2803.2,0.0,0.020016,0,0,2803.2,0.0,0.020016,0,0,2803.2,0.0,0.020016,0,0,2803.2,0.0
1682445832113806102,,1682445832,113243353,,0.020024,0,0,2803.2,0.0,0.020024,0,0,2803.2,0.0,0.020024,0,0,2803.2,0.0,0.020024,0,0,2803.2,0.0
1682445832134424993,,1682445832,133768153,,0.02002,0,0,2803.2,0.0,0.02002,0,0,2803.2,0.0,0.02002,0,0,2803.2,0.0,0.02002,0,0,2803.2,0.0
1682445832154800333,,1682445832,154255694,,0.020016,0,0,2803.2,0.0,0.020016,0,0,2803.2,0.0,0.020016,0,0,2803.2,0.0,0.020016,0,0,2803.2,0.0
1682445832175176469,,1682445832,174726106,,0.020024,0,0,2803.2,0.0,0.020024,0,0,2803.2,0.0,0.020024,0,0,2803.2,0.0,0.020024,0,0,2803.2,0.0
1682445832195684232,,1682445832,195266239,,0.020036,0,0,2803.2,0.0,0.020036,0,0,2803.2,0.0,0.020036,0,0,2803.2,0.0,0.020036,0,0,2803.2,0.0
1682445832216248957,,1682445832,215779262,,0.020004,0,0,2803.2,0.0,0.020004,0,0,2803.2,0.0,0.020004,0,0,2803.2,0.0,0.020004,0,0,2803.2,0.0
1682445832237444005,,1682445832,236963013,,0.02002,0,0,2803.2,0.0,0.02002,0,0,2803.2,0.0,0.02002,0,0,2803.2,0.0,0.02002,0,0,2803.2,0.0
1682445832252868692,,1682445832,252393404,,0.020016,0,0,2803.2,0.0,0.020016,0,0,2803.2,0.0,0.020016,0,0,2803.2,0.0,0.020016,0,0,2803.2,0.0
1682445832273504897,,1682445832,272957000,,0.020004,0,0,2803.2,0.0,0.020004,0,0,2803.2,0.0,0.020004,0,0,2803.2,0.0,0.020004,0,0,2803.2,0.0
1682445832293970365,,1682445832,293449986,,0.02002,0,0,2803.2,0.0,0.02002,0,0,2803.2,0.0,0.02002,0,0,2803.2,0.0,0.02002,0,0,2803.2,0.0
1682445832314447055,,1682445832,313968138,,0.020036,0,0,2803.2,0.0,0.020036,0,0,2803.2,0.0,0.020036,0,0,2803.2,0.0,0.020036,0,0,2803.2,0.0
1682445832335031854,,1682445832,334520363,,0.020024,0,0,2803.2,0.0,0.020024,0,0,2803.2,0.0,0.020024,0,0,2803.2,0.0,0.020024,0,0,2803.2,0.0
1682445832355485526,,1682445832,354998664,,0.020016,0,0,2803.2,0.0,0.020016,0,0,2803.2,0.0,0.020016,0,0,2803.2,0.0,0.020016,0,0,2803.2,0.0
1682445832375916494,,1682445832,375480761,,0.02002,0,0,2803.2,0.0,0.02002,0,0,2803.2,0.0,0.02002,0,0,2803.2,0.0,0.02002,0,0,2803.2,0.0
1682445832396380758,,1682445832,395954229,,0.020004,0,0,2803.2,0.0,0.020004,0,0,2803.2,0.0,0.020004,0,0,2803.2,0.0,0.020004,0,0,2803.2,0.0
1682445832416982075,,1682445832,416460862,,0.02002,0,0,2803.2,0.0,0.02002,0,0,2803.2,0.0,0.02002,0,0,2803.2,0.0,0.02002,0,0,2803.2,0.0
1682445832433130398,,1682445832,432642703,,0.020016,0,0,2803.2,0.0,0.020016,0,0,2803.2,0.0,0.020016,0,0,2803.2,0.0,0.020016,0,0,2803.2,0.0
1682445832453643309,,1682445832,453154096,,0.020024,0,0,2803.2,0.0,0.020024,0,0,2803.2,0.0,0.020024,0,0,2803.2,0.0,0.020024,0,0,2803.2,0.0
1682445832474143406,,1682445832,473665711,,0.020036,0,0,2803.2,0.0,0.020036,0,0,2803.2,0.0,0.020036,0,0,2803.2,0.0,0.020036,0,0,2803.2,0.0
1682445832494707724,,1682445832,494234066,,0.02002,0,0,2803.2,0.0,0.02002,0,0,2803.2,0.0,0.02002,0,0,2803.2,0.0,0.02002,0,0,2803.2,0.0
1682445832515340615,,1682445832,514746736,,0.02002,0,0,2803.2,0.0,0.02002,0,0,2803.2,0.0,0.02002,0,0,2803.2,0.0,0.02002,0,0,2803.2,0.0
1682445832535740084,,1682445832,535273851,,0.02002,0,0,2803.2,0.0,0.02002,0,0,2803.2,0.0,0.02002,0,0,2803.2,0.0,0.02002,0,0,2803.2,0.0
1682445832556220347,,1682445832,555751430,,0.020024,0,0,2803.2,0.0,0.020024,0,0,2803.2,0.0,0.020024,0,0,2803.2,0.0,0.020024,0,0,2803.2,0.0
1682445832576767351,,1682445832,576249193,,0.02002,0,0,2803.2,0.0,0.02002,0,0,2803.2,0.0,0.02002,0,0,2803.2,0.0,0.02002,0,0,2803.2,0.0
1682445832597163838,,1682445832,596659995,,0.02002,0,0,2803.2,0.0,0.02002,0,0,2803.2,0.0,0.02002,0,0,2803.2,0.0,0.02002,0,0,2803.2,0.0
1682445832613509194,,1682445832,612904002,,0.02002,0,0,2803.2,0.0,0.02002,0,0,2803.2,0.0,0.02002,0,0,2803.2,0.0,0.02002,0,0,2803.2,0.0
1682445832634010736,,1682445832,633450634,,0.020016,0,0,2803.2,0.0,0.020016,0,0,2803.2,0.0,0.020016,0,0,2803.2,0.0,0.020016,0,0,2803.2,0.0
1682445832654567350,,1682445832,653996360,,0.020024,0,0,2803.2,0.0,0.020024,0,0,2803.2,0.0,0.020024,0,0,2803.2,0.0,0.020024,0,0,2803.2,0.0
1682445832674867080,,1682445832,674410070,,0.020016,0,0,2803.2,0.0,0.020016,0,0,2803.2,0.0,0.020016,0,0,2803.2,0.0,0.020016,0,0,2803.2,0.0
1682445832695350270,,1682445832,694920962,,0.02004,0,0,2803.2,0.0,0.02004,0,0,2803.2,0.0,0.02004,0,0,2803.2,0.0,0.02004,0,0,2803.2,0.0
1682445832715844533,,1682445832,715412467,,0.020004,0,0,2803.2,0.0,0.020004,0,0,2803.2,0.0,0.020004,0,0,2803.2,0.0,0.020004,0,0,2803.2,0.0
1682445832736378055,,1682445832,735949655,,0.02002,0,0,2803.2,0.0,0.02002,0,0,2803.2,0.0,0.02002,0,0,2803.2,0.0,0.02002,0,0,2803.2,0.0
1682445832756795357,,1682445832,756366717,,0.02002,0,0,2803.2,0.0,0.02002,0,0,2803.2,0.0,0.02002,0,0,2803.2,0.0,0.02002,0,0,2803.2,0.0
1682445832773102010,,1682445832,772584020,,0.020016,0,0,2803.2,0.0,0.020016,0,0,2803.2,0.0,0.020016,0,0,2803.2,0.0,0.020016,0,0,2803.2,0.0
1682445832793626662,,1682445832,793110264,,0.020004,0,0,2803.2,0.0,0.020004,0,0,2803.2,0.0,0.020004,0,0,2803.2,0.0,0.020004,0,0,2803.2,0.0
1682445832814415291,,1682445832,813726248,,0.020016,0,0,2803.2,0.0,0.020016,0,0,2803.2,0.0,0.020016,0,0,2803.2,0.0,0.020016,0,0,2803.2,0.0
1682445832835199216,,1682445832,834389767,,0.02002,0,0,2803.2,0.0,0.02002,0,0,2803.2,0.0,0.02002,0,0,2803.2,0.0,0.02002,0,0,2803.2,0.0
1682445832855351060,,1682445832,854699127,,0.02002,0,0,2803.2,0.0,0.02002,0,0,2803.2,0.0,0.02002,0,0,2803.2,0.0,0.02002,0,0,2803.2,0.0
1682445832875559421,,1682445832,875123984,,0.020004,0,0,2803.2,0.0,0.020004,0,0,2803.2,0.0,0.020004,0,0,2803.2,0.0,0.020004,0,0,2803.2,0.0
1682445832896047518,,1682445832,895617637,,0.02002,0,0,2803.2,0.0,0.02002,0,0,2803.2,0.0,0.02002,0,0,2803.2,0.0,0.02002,0,0,2803.2,0.0
1682445832916501671,,1682445832,916081216,,0.02002,0,0,2803.2,0.0,0.02002,0,0,2803.2,0.0,0.02002,0,0,2803.2,0.0,0.02002,0,0,2803.2,0.0
1682445832936965361,,1682445832,936547313,,0.02002,0,0,2803.2,0.0,0.02002,0,0,2803.2,0.0,0.02002,0,0,2803.2,0.0,0.02002,0,0,2803.2,0.0
1682445832953175720,,1682445832,952739950,,0.020036,0,0,2803.2,0.0,0.020036,0,0,2803.2,0.0,0.020036,0,0,2803.2,0.0,0.020036,0,0,2803.2,0.0
1682445832973787611,,1682445832,973287694,,0.020004,0,0,2803.2,0.0,0.020004,0,0,2803.2,0.0,0.020004,0,0,2803.2,0.0,0.020004,0,0,2803.2,0.0
1682445832994513481,,1682445832,993837808,,0.020016,0,0,2803.2,0.0,0.020016,0,0,2803.2,0.0,0.020016,0,0,2803.2,0.0,0.020016,0,0,2803.2,0.0
1682445833015079632,,1682445833,14374404,,0.02002,0,0,2803.2,0.0,0.02002,0,0,2803.2,0.0,0.02002,0,0,2803.2,0.0,0.02002,0,0,2803.2,0.0
1682445833035744689,,1682445833,34989647,,0.020024,0,0,2803.2,0.0,0.020024,0,0,2803.2,0.0,0.020024,0,0,2803.2,0.0,0.020024,0,0,2803.2,0.0
1682445833056343766,,1682445833,55476614,,0.020016,0,0,2803.2,0.0,0.020016,0,0,2803.2,0.0,0.020016,0,0,2803.2,0.0,0.020016,0,0,2803.2,0.0
1682445833076370871,,1682445833,75896046,,0.02002,0,0,2803.2,0.0,0.02002,0,0,2803.2,0.0,0.02002,0,0,2803.2,0.0,0.02002,0,0,2803.2,0.0
1682445833096813469,,1682445833,96387032,,0.020004,0,0,2803.2,0.0,0.020004,0,0,2803.2,0.0,0.020004,0,0,2803.2,0.0,0.020004,0,0,2803.2,0.0
1682445833117167050,,1682445833,116759890,,0.020036,0,0,2803.2,0.0,0.020036,0,0,2803.2,0.0,0.020036,0,0,2803.2,0.0,0.020036,0,0,2803.2,0.0
1682445833133379741,,1682445833,132982174,,0.020004,0,0,2803.2,0.0,0.020004,0,0,2803.2,0.0,0.020004,0,0,2803.2,0.0,0.020004,0,0,2803.2,0.0
1682445833153862653,,1682445833,153475938,,0.02002,0,0,2803.2,0.0,0.02002,0,0,2803.2,0.0,0.02002,0,0,2803.2,0.0,0.02002,0,0,2803.2,0.0
1682445833174519451,,1682445833,174057996,,0.020016,0,0,2803.2,0.0,0.020016,0,0,2803.2,0.0,0.020016,0,0,2803.2,0.0,0.020016,0,0,2803.2,0.0
1682445833195046695,,1682445833,194561426,,0.020024,0,0,2803.2,0.0,0.020024,0,0,2803.2,0.0,0.020024,0,0,2803.2,0.0,0.020024,0,0,2803.2,0.0
1682445833215711419,,1682445833,215151188,,0.02002,0,0,2803.2,0.0,0.02002,0,0,2803.2,0.0,0.02002,0,0,2803.2,0.0,0.02002,0,0,2803.2,0.0
1682445833236171979,,1682445833,235658377,,0.020036,0,0,2803.2,0.0,0.020036,0,0,2803.2,0.0,0.020036,0,0,2803.2,0.0,0.020036,0,0,2803.2,0.0
1682445833256609151,,1682445833,256129623,,0.020024,0,0,2803.2,0.0,0.020024,0,0,2803.2,0.0,0.020024,0,0,2803.2,0.0,0.020024,0,0,2803.2,0.0
1682445833277028250,,1682445833,276548610,,0.020016,0,0,2803.2,0.0,0.020016,0,0,2803.2,0.0,0.020016,0,0,2803.2,0.0,0.020016,0,0,2803.2,0.0
1682445833293152313,,1682445833,292695229,,0.02002,0,0,2803.2,0.0,0.02002,0,0,2803.2,0.0,0.02002,0,0,2803.2,0.0,0.02002,0,0,2803.2,0.0
1682445833313636985,,1682445833,313194492,,0.020004,0,0,2803.2,0.0,0.020004,0,0,2803.2,0.0,0.020004,0,0,2803.2,0.0,0.020004,0,0,2803.2,0.0
1682445833334265431,,1682445833,333775236,,0.020036,0,0,2803.2,0.0,0.020036,0,0,2803.2,0.0,0.020036,0,0,2803.2,0.0,0.020036,0,0,2803.2,0.0
1682445833355000079,,1682445833,354334961,,0.020004,0,0,2803.2,0.0,0.020004,0,0,2803.2,0.0,0.020004,0,0,2803.2,0.0,0.020004,0,0,2803.2,0.0
1682445833375574378,,1682445833,374820114,,0.020016,0,0,2803.2,0.0,0.020016,0,0,2803.2,0.0,0.020016,0,0,2803.2,0.0,0.020016,0,0,2803.2,0.0
1682445833395984162,,1682445833,395365247,,0.020024,0,0,2803.2,0.0,0.020024,0,0,2803.2,0.0,0.020024,0,0,2803.2,0.0,0.020024,0,0,2803.2,0.0
1682445833416535443,,1682445833,415814122,,0.02002,0,0,2803.2,0.0,0.02002,0,0,2803.2,0.0,0.02002,0,0,2803.2,0.0,0.02002,0,0,2803.2,0.0
1682445833436929060,,1682445833,436364126,,0.020036,0,0,2803.2,0.0,0.020036,0,0,2803.2,0.0,0.020036,0,0,2803.2,0.0,0.020036,0,0,2803.2,0.0
1682445833457288733,,1682445833,456702873,,0.02002,0,0,2803.2,0.0,0.02002,0,0,2803.2,0.0,0.02002,0,0,2803.2,0.0,0.02002,0,0,2803.2,0.0
1682445833473398483,,1682445833,472865177,,0.020004,0,0,2803.2,0.0,0.020004,0,0,2803.2,0.0,0.020004,0,0,2803.2,0.0,0.020004,0,0,2803.2,0.0
1682445833493850432,,1682445833,493351311,,0.020056,0,0,2803.2,0.0,0.020056,0,0,2803.2,0.0,0.020056,0,0,2803.2,0.0,0.020056,0,0,2803.2,0.0
1682445833514489897,,1682445833,513950184,,0.020004,0,0,2803.2,0.0,0.020004,0,0,2803.2,0.0,0.020004,0,0,2803.2,0.0,0.020004,0,0,2803.2,0.0
1682445833535070659,,1682445833,534488688,,0.02002,0,0,2803.2,0.0,0.02002,0,0,2803.2,0.0,0.02002,0,0,2803.2,0.0,0.02002,0,0,2803.2,0.0
1682445833555678624,,1682445833,555030413,,0.02002,0,0,2803.2,0.0,0.02002,0,0,2803.2,0.0,0.02002,0,0,2803.2,0.0,0.02002,0,0,2803.2,0.0
1682445833576131388,,1682445833,575494140,,0.02002,0,0,2803.2,0.0,0.02002,0,0,2803.2,0.0,0.02002,0,0,2803.2,0.0,0.02002,0,0,2803.2,0.0
1682445833596628467,,1682445833,596031681,,0.02002,0,0,2803.2,0.0,0.02002,0,0,2803.2,0.0,0.02002,0,0,2803.2,0.0,0.02002,0,0,2803.2,0.0
1682445833617015325,,1682445833,616452168,,0.020016,0,0,2803.2,0.0,0.020016,0,0,2803.2,0.0,0.020016,0,0,2803.2,0.0,0.020016,0,0,2803.2,0.0
1682445833637408479,,1682445833,636922876,,0.020004,0,0,2803.2,0.0,0.020004,0,0,2803.2,0.0,0.020004,0,0,2803.2,0.0,0.020004,0,0,2803.2,0.0
1682445833653631300,,1682445833,653134753,,0.020036,0,0,2803.2,0.0,0.020036,0,0,2803.2,0.0,0.020036,0,0,2803.2,0.0,0.020036,0,0,2803.2,0.0
1682445833674207062,,1682445833,673648331,,0.020004,0,0,2803.2,0.0,0.020004,0,0,2803.2,0.0,0.020004,0,0,2803.2,0.0,0.020004,0,0,2803.2,0.0
1682445833694840397,,1682445833,694216371,,0.020016,0,0,2803.2,0.0,0.020016,0,0,2803.2,0.0,0.020016,0,0,2803.2,0.0,0.020016,0,0,2803.2,0.0
1682445833715784023,,1682445833,714770782,,0.02002,0,0,2803.2,0.0,0.02002,0,0,2803.2,0.0,0.02002,0,0,2803.2,0.0,0.02002,0,0,2803.2,0.0
1682445833736061383,,1682445833,735262009,,0.020024,0,0,2803.2,0.0,0.020024,0,0,2803.2,0.0,0.020024,0,0,2803.2,0.0,0.020024,0,0,2803.2,0.0
1682445833756453056,,1682445833,755796883,,0.020016,0,0,2803.2,0.0,0.020016,0,0,2803.2,0.0,0.020016,0,0,2803.2,0.0,0.020016,0,0,2803.2,0.0
1682445833776682621,,1682445833,776231314,,0.02002,0,0,2803.2,0.0,0.02002,0,0,2803.2,0.0,0.02002,0,0,2803.2,0.0,0.02002,0,0,2803.2,0.0
1682445833797060683,,1682445833,796655653,,0.02002,0,0,2803.2,0.0,0.02002,0,0,2803.2,0.0,0.02002,0,0,2803.2,0.0,0.02002,0,0,2803.2,0.0
1682445833813221005,,1682445833,812805772,,0.020004,0,0,2803.2,0.0,0.020004,0,0,2803.2,0.0,0.020004,0,0,2803.2,0.0,0.020004,0,0,2803.2,0.0
1682445833834465533,,1682445833,834037152,,0.020036,0,0,2803.2,0.0,0.020036,0,0,2803.2,0.0,0.020036,0,0,2803.2,0.0,0.020036,0,0,2803.2,0.0
1682445833854356474,,1682445833,853876464,,0.020004,0,0,2803.2,0.0,0.020004,0,0,2803.2,0.0,0.020004,0,0,2803.2,0.0,0.020004,0,0,2803.2,0.0
1682445833874939328,,1682445833,874426393,,0.02002,0,0,2803.2,0.0,0.02002,0,0,2803.2,0.0,0.02002,0,0,2803.2,0.0,0.02002,0,0,2803.2,0.0
1682445833895432388,,1682445833,894932508,,0.02004,0,0,2803.2,0.0,0.02004,0,0,2803.2,0.0,0.02004,0,0,2803.2,0.0,0.02004,0,0,2803.2,0.0
1682445833916029206,,1682445833,915483845,,0.020016,0,0,2803.2,0.0,0.020016,0,0,2803.2,0.0,0.020016,0,0,2803.2,0.0,0.020016,0,0,2803.2,0.0
1682445833936683374,,1682445833,936029274,,0.02002,0,0,2803.2,0.0,0.02002,0,0,2803.2,0.0,0.02002,0,0,2803.2,0.0,0.02002,0,0,2803.2,0.0
1682445833957180341,,1682445833,956562111,,0.020024,0,0,2803.2,0.0,0.020024,0,0,2803.2,0.0,0.020024,0,0,2803.2,0.0,0.020024,0,0,2803.2,0.0
1682445833977381202,,1682445833,976882452,,0.02002,0,0,2803.2,0.0,0.02002,0,0,2803.2,0.0,0.02002,0,0,2803.2,0.0,0.02002,0,0,2803.2,0.0
1682445833993476581,,1682445833,993023886,,0.020016,0,0,2803.2,0.0,0.020016,0,0,2803.2,0.0,0.020016,0,0,2803.2,0.0,0.020016,0,0,2803.2,0.0
1682445834014298043,,1682445834,13712794,,0.02002,0,0,2803.2,0.0,0.02002,0,0,2803.2,0.0,0.02002,0,0,2803.2,0.0,0.02002,0,0,2803.2,0.0
1682445834034621754,,1682445834,34136300,,0.02002,0,0,2803.2,0.0,0.02002,0,0,2803.2,0.0,0.02002,0,0,2803.2,0.0,0.02002,0,0,2803.2,0.0
1682445834055112703,,1682445834,54649192,,0.020004,0,0,2803.2,0.0,0.020004,0,0,2803.2,0.0,0.020004,0,0,2803.2,0.0,0.020004,0,0,2803.2,0.0
1682445834075657688,,1682445834,75170826,,0.020016,0,0,2803.2,0.0,0.020016,0,0,2803.2,0.0,0.020016,0,0,2803.2,0.0,0.020016,0,0,2803.2,0.0
1682445834096250357,,1682445834,95723792,,0.020024,0,0,2803.2,0.0,0.020024,0,0,2803.2,0.0,0.020024,0,0,2803.2,0.0,0.020024,0,0,2803.2,0.0
1682445834116755935,,1682445834,116222389,,0.02002,0,0,2803.2,0.0,0.02002,0,0,2803.2,0.0,0.02002,0,0,2803.2,0.0,0.02002,0,0,2803.2,0.0
1682445834137183144,,1682445834,136697634,,0.020016,0,0,2803.2,0.0,0.020016,0,0,2803.2,0.0,0.020016,0,0,2803.2,0.0,0.020016,0,0,2803.2,0.0
1682445834157584983,,1682445834,157103122,,0.020024,0,0,2803.2,0.0,0.020024,0,0,2803.2,0.0,0.020024,0,0,2803.2,0.0,0.020024,0,0,2803.2,0.0
1682445834173737250,,1682445834,173303166,,0.02002,0,0,2803.2,0.0,0.02002,0,0,2803.2,0.0,0.02002,0,0,2803.2,0.0,0.02002,0,0,2803.2,0.0
1682445834194219422,,1682445834,193786392,,0.02002,0,0,2803.2,0.0,0.02002,0,0,2803.2,0.0,0.02002,0,0,2803.2,0.0,0.02002,0,0,2803.2,0.0
1682445834214741462,,1682445834,214274082,,0.020036,0,0,2803.2,0.0,0.020036,0,0,2803.2,0.0,0.020036,0,0,2803.2,0.0,0.020036,0,0,2803.2,0.0
1682445834235531906,,1682445834,234909028,,0.020024,0,0,2803.2,0.0,0.020024,0,0,2803.2,0.0,0.020024,0,0,2803.2,0.0,0.020024,0,0,2803.2,0.0
1682445834255913542,,1682445834,255411440,,0.020016,0,0,2803.2,0.0,0.020016,0,0,2803.2,0.0,0.020016,0,0,2803.2,0.0,0.020016,0,0,2803.2,0.0
1682445834276421305,,1682445834,275919888,,0.020024,0,0,2803.2,0.0,0.020024,0,0,2803.2,0.0,0.020024,0,0,2803.2,0.0,0.020024,0,0,2803.2,0.0
